[
  {
    "id": "2a30c81b-e19c-4941-a97f-c318e5d9f98a",
    "title": "20 Gramos Café",
    "address": "Pje. José Simeón Cañas #5, pol F, Colonia Santa Gertrudis",
    "country": "SV",
    "city": "San Miguel",
    "lat": "13.479663",
    "lng": "-88.183976",
    "accepted_cryptos": [
      "BTC",
      "UST"
    ],
    "tags": [
      "food_and_drink"
    ],
    "phone": null,
    "logo_url": "https://s3.eu-central-1.amazonaws.com/public.elipay.com/live-3514d179aac2/source/images/16e795c6a24744b58b4005f09ed63ba8.jpg",
    "website": "https://www.instagram.com/20gramos.sv/?hl=en",
    "description": null,
    "extra_data": {
      "gocryptoId": 3390
    },
    "zip_code": "3301"
  },
  {
    "id": "4949cacb-2f17-466c-b18a-257a8687937f",
    "title": "7 Sopas",
    "address": "17 Avenida Nte., Cd Merliot",
    "country": "SV",
    "city": "Santa Tecla",
    "lat": "13.683314",
    "lng": "-89.276546",
    "accepted_cryptos": [
      "BTC",
      "UST"
    ],
    "tags": [
      "food_and_drink",
      "disable_eurt"
    ],
    "phone": null,
    "logo_url": "",
    "website": null,
    "description": null,
    "extra_data": {
      "gocryptoId": 3728
    },
    "zip_code": "1101"
  },
  {
    "id": "78b0c563-34ce-4757-b74e-65c9a0faa2ae",
    "title": "Accesorios ZAID",
    "address": "Residencial Libertad Pasaje13 Polígono C casa #37, Tonacatepeque",
    "country": "SV",
    "city": "San Salvador",
    "lat": "13.800437",
    "lng": "-89.139062",
    "accepted_cryptos": [
      "BTC",
      "UST"
    ],
    "tags": [
      "services",
      "retail"
    ],
    "phone": null,
    "logo_url": "",
    "website": "",
    "description": null,
    "extra_data": {
      "gocryptoId": 3398
    },
    "zip_code": "1101"
  },
  {
    "id": "0b7b0bd6-bb6d-42f1-8467-5f1c46505adb",
    "title": "Adry Salón",
    "address": "1a Avenida Nte y 3a Calle Pte, Int. Mesón Ataco",
    "country": "SV",
    "city": "Ahuachapan",
    "lat": "13.871013",
    "lng": "-89.851549",
    "accepted_cryptos": [
      "BTC",
      "UST"
    ],
    "tags": [
      "services",
      "fashion"
    ],
    "phone": null,
    "logo_url": "",
    "website": "",
    "description": null,
    "extra_data": {
      "gocryptoId": 3333
    },
    "zip_code": "1101"
  },
  {
    "id": "b8858c72-98f1-4764-92b9-3240fe799295",
    "title": "Alarmas & Cerrajeria",
    "address": "Blvd Los Próceres #10A, Reparto Los Héroes, local #3",
    "country": "SV",
    "city": "San Salvador",
    "lat": "13.683155",
    "lng": "-89.225296",
    "accepted_cryptos": [
      "BTC",
      "UST"
    ],
    "tags": [
      "auto_and_moto",
      "services"
    ],
    "phone": null,
    "logo_url": "",
    "website": "",
    "description": null,
    "extra_data": {
      "gocryptoId": 3317
    },
    "zip_code": "1101"
  },
  {
    "id": "4ad18dfe-a3f0-4131-a81c-215c98996b21",
    "title": "Antiquites",
    "address": "Paseo El Carmen Plaza Castellar local #4B",
    "country": "SV",
    "city": "Santa Tecla",
    "lat": "13.675349",
    "lng": "-89.286207",
    "accepted_cryptos": [
      "BTC",
      "UST"
    ],
    "tags": [
      "fashion"
    ],
    "phone": null,
    "logo_url": "https://s3.eu-central-1.amazonaws.com/public.elipay.com/live-3514d179aac2/source/images/4ada99f5396149f09aad9b9c77551685.jpg",
    "website": "",
    "description": null,
    "extra_data": {
      "gocryptoId": 3998
    },
    "zip_code": "1101"
  },
  {
    "id": "77385549-02a6-4268-b005-fa13bd16c536",
    "title": "Artesanias Aguila",
    "address": "Calle Santa Tecla Contiguo Feria Int",
    "country": "SV",
    "city": "San Salvador",
    "lat": "13.690002",
    "lng": "-89.233007",
    "accepted_cryptos": [
      "BTC",
      "UST"
    ],
    "tags": [
      "home_and_garden",
      "retail"
    ],
    "phone": null,
    "logo_url": "",
    "website": "",
    "description": null,
    "extra_data": {
      "gocryptoId": 3613
    },
    "zip_code": "1101"
  },
  {
    "id": "745ca972-3d3d-43e7-9691-dcc3977fee33",
    "title": "Artesanias Hector",
    "address": "Finca Rauda cafeteria, Canton San Juan desvio a La Laguna de Alegria, Usulutan",
    "country": "SV",
    "city": "Alegria",
    "lat": "13.492738",
    "lng": "-88.493234",
    "accepted_cryptos": [
      "BTC",
      "UST"
    ],
    "tags": [
      "home_and_garden"
    ],
    "phone": null,
    "logo_url": "",
    "website": "",
    "description": null,
    "extra_data": {
      "gocryptoId": 3363
    },
    "zip_code": "1101"
  },
  {
    "id": "bfc03262-b908-4b79-93b2-96c3afa709b3",
    "title": "Artesanias Típicas Callejas",
    "address": "Calle Santa Tecla Ctgo Feria Int",
    "country": "SV",
    "city": "San Salvador",
    "lat": "13.690013",
    "lng": "-89.232983",
    "accepted_cryptos": [
      "BTC",
      "UST",
      "NAKA_CARD"
    ],
    "tags": [
      "home_and_garden",
      "retail",
      "NAKA"
    ],
    "phone": null,
    "logo_url": "https://s3.eu-central-1.amazonaws.com/public.elipay.com/live-3514d179aac2/source/images/631e4111d2b7450ba8c0a79fc5f33b6c.jpg",
    "website": "",
    "description": null,
    "extra_data": {
      "gocryptoId": 3617
    },
    "zip_code": "1101"
  },
  {
    "id": "541f4dfb-41dd-4487-a0d7-06ca2a6ce77e",
    "title": "Asados Orale",
    "address": "Residencial Nuevo Lourdes, Calle Principal Block 9, Casa #7, Lourdes Colon",
    "country": "SV",
    "city": "La Libertad",
    "lat": "13.724380",
    "lng": "-89.384262",
    "accepted_cryptos": [
      "BTC",
      "UST"
    ],
    "tags": [
      "food_and_drink",
      "retail"
    ],
    "phone": null,
    "logo_url": "https://s3.eu-central-1.amazonaws.com/public.elipay.com/live-3514d179aac2/source/images/c3604c89e3f4456499e8cba9cccfcc41.jpg",
    "website": "",
    "description": null,
    "extra_data": {
      "gocryptoId": 3718
    },
    "zip_code": "1101"
  },
  {
    "id": "8a4195c5-78f3-40e8-a0d0-c72efb78fd9e",
    "title": "Auto Solutions Sanchez",
    "address": "Residencial San Francisco, Avenida San Francisco Poligono 25 senda 1 Lote 10",
    "country": "SV",
    "city": "San Miguel",
    "lat": "13.475187",
    "lng": "-88.162313",
    "accepted_cryptos": [
      "BTC",
      "UST"
    ],
    "tags": [
      "auto_and_moto",
      "services"
    ],
    "phone": null,
    "logo_url": "",
    "website": "",
    "description": null,
    "extra_data": {
      "gocryptoId": 3353
    },
    "zip_code": "1101"
  },
  {
    "id": "46f9eb79-de95-41df-9ea2-ddcb2ad1dcd3",
    "title": "Avalon Tech",
    "address": "Cevallos Passage, between 1a. Calle Poniente and 41a. North Avenue, No. 115, Colonia Flor Blanca",
    "country": "SV",
    "city": "San Salvador",
    "lat": "13.701688",
    "lng": "-89.212187",
    "accepted_cryptos": [
      "BTC",
      "UST"
    ],
    "tags": [
      "electronics",
      "services"
    ],
    "phone": null,
    "logo_url": "https://s3.eu-central-1.amazonaws.com/public.elipay.com/live-3514d179aac2/source/images/bd69d0caac6c4c3291256d132c4f2d14.png",
    "website": "https://avalon.com.sv",
    "description": null,
    "extra_data": {
      "gocryptoId": 3313
    },
    "zip_code": "1101"
  },
  {
    "id": "e660dd27-8198-4268-b6d3-e4e374a565ab",
    "title": "Azaleas Salon",
    "address": "Avenida Albert Einstein colonia Jardines de Guadalupe pol N local #3",
    "country": "SV",
    "city": "Antiguo Cuscatlan",
    "lat": "13.677693",
    "lng": "-89.235502",
    "accepted_cryptos": [
      "BTC",
      "UST"
    ],
    "tags": [
      "fashion"
    ],
    "phone": null,
    "logo_url": "",
    "website": "",
    "description": null,
    "extra_data": {
      "gocryptoId": 3312
    },
    "zip_code": "1101"
  },
  {
    "id": "59c9917d-7794-4cb5-8081-a7a9e2b846b9",
    "title": "Azteca Mexican Cuisine",
    "address": "Colonia La Mascota, Pasaje 3, Lote 25",
    "country": "SV",
    "city": "San Salvador",
    "lat": "13.696938",
    "lng": "-89.237938",
    "accepted_cryptos": [
      "BTC",
      "UST"
    ],
    "tags": [
      "food_and_drink"
    ],
    "phone": null,
    "logo_url": "https://s3.eu-central-1.amazonaws.com/public.elipay.com/live-3514d179aac2/source/images/50470f2815b348638580287d9084be0b.jpg",
    "website": "",
    "description": null,
    "extra_data": {
      "gocryptoId": 3555
    },
    "zip_code": "1101"
  },
  {
    "id": "3b5874b8-b694-4484-a425-30cb1d7749e6",
    "title": "Baby Chocolatito",
    "address": "3a Calle Oriente #12, Barrio El Calvario",
    "country": "SV",
    "city": "Quezaltepeque",
    "lat": "13.833065",
    "lng": "-89.270884",
    "accepted_cryptos": [
      "BTC",
      "UST"
    ],
    "tags": [
      "food_and_drink",
      "retail"
    ],
    "phone": null,
    "logo_url": "",
    "website": "",
    "description": null,
    "extra_data": {
      "gocryptoId": 3381
    },
    "zip_code": "1101"
  },
  {
    "id": "2ccca13e-655d-4593-86cb-abd631904801",
    "title": "Bandoleras Store",
    "address": "Cantón Los Lagartos, Caserío Casa Blanca, Casa San Julián",
    "country": "SV",
    "city": "Sonsonate",
    "lat": "13.734938",
    "lng": "-89.556562",
    "accepted_cryptos": [
      "BTC",
      "UST"
    ],
    "tags": [
      "services",
      "retail",
      "disable_eurt"
    ],
    "phone": null,
    "logo_url": "",
    "website": null,
    "description": null,
    "extra_data": {
      "gocryptoId": 3946
    },
    "zip_code": "1101"
  },
  {
    "id": "d4edd54c-3231-4b00-a0bd-0daee040d111",
    "title": "Bongo Experience",
    "address": "Lte S/N Caserio Agua Fria, Cantóm El Zapote, Jucuarán",
    "country": "SV",
    "city": "Usulután",
    "lat": "13.166016",
    "lng": "-88.202295",
    "accepted_cryptos": [
      "BTC",
      "UST"
    ],
    "tags": [
      "services",
      "food_and_drink"
    ],
    "phone": null,
    "logo_url": "https://s3.eu-central-1.amazonaws.com/public.elipay.com/live-3514d179aac2/source/images/7b28b71dc7ca449aa1731e704693cf4e.jpg",
    "website": "https://www.instagram.com/bongo_experience/",
    "description": null,
    "extra_data": {
      "gocryptoId": 3427
    },
    "zip_code": "3411"
  },
  {
    "id": "8519e4b5-1612-4204-8c17-22edaa68e4b6",
    "title": "Cali Clothing",
    "address": "Calle El Mirador 4713-2, Col Escalon, San Salvador",
    "country": "SV",
    "city": "San Salvador",
    "lat": "13.709886",
    "lng": "-89.244163",
    "accepted_cryptos": [
      "BTC",
      "UST"
    ],
    "tags": [
      "fashion"
    ],
    "phone": null,
    "logo_url": "https://s3.eu-central-1.amazonaws.com/public.elipay.com/live-3514d179aac2/source/images/d53b862debbd4c268514412782b7d2eb.jpg",
    "website": "https://www.shopcaliclothing.com",
    "description": null,
    "extra_data": {
      "gocryptoId": 3137
    },
    "zip_code": "1101"
  },
  {
    "id": "ade38909-ba10-4e79-84f3-2121ef593ca7",
    "title": "Centro de Servicio Truper",
    "address": "Ferreteria Ptd 66 Int Mercado Belloso",
    "country": "SV",
    "city": "San Salvador",
    "lat": "13.693508",
    "lng": "-89.191014",
    "accepted_cryptos": [
      "BTC",
      "UST"
    ],
    "tags": [
      "retail",
      "home_and_garden"
    ],
    "phone": null,
    "logo_url": "",
    "website": "",
    "description": null,
    "extra_data": {
      "gocryptoId": 3572
    },
    "zip_code": "1101"
  },
  {
    "id": "1e9b4ee3-aad7-424e-98a9-90ae9bc2adad",
    "title": "Cerrajeria Vides",
    "address": "Avenida 14 de Julio, local 92-5, Reparto Los Heroes",
    "country": "SV",
    "city": "San Salvador",
    "lat": "13.682274",
    "lng": "-89.224798",
    "accepted_cryptos": [
      "BTC",
      "UST",
      "NAKA_CARD"
    ],
    "tags": [
      "services",
      "home_and_garden",
      "NAKA"
    ],
    "phone": null,
    "logo_url": "https://s3.eu-central-1.amazonaws.com/public.elipay.com/live-3514d179aac2/source/images/8d8c0a151bcc45ed9ad640b1b708c4b8.png",
    "website": "",
    "description": null,
    "extra_data": {
      "gocryptoId": 3349
    },
    "zip_code": "1101"
  },
  {
    "id": "40c72c86-cdfe-4a8e-8e7b-e6fb2651a9a6",
    "title": "Chalet Alejandra",
    "address": "Urb SN Jose las Flores Pje 27 BK 28 No. 17",
    "country": "SV",
    "city": "Tonacatepeque",
    "lat": "13.817863",
    "lng": "-89.141953",
    "accepted_cryptos": [
      "BTC",
      "UST"
    ],
    "tags": [
      "food_and_drink",
      "retail"
    ],
    "phone": null,
    "logo_url": "",
    "website": "",
    "description": null,
    "extra_data": {
      "gocryptoId": 3620
    },
    "zip_code": "1101"
  },
  {
    "id": "4378f610-04d0-46c1-ae84-8d58eba47c00",
    "title": "Chella's Fish",
    "address": "Playa el obispo local #9 La libertad",
    "country": "SV",
    "city": "La libertad",
    "lat": "13.486531",
    "lng": "-89.314793",
    "accepted_cryptos": [
      "BTC",
      "UST",
      "NAKA_CARD"
    ],
    "tags": [
      "food_and_drink",
      "retail",
      "NAKA"
    ],
    "phone": null,
    "logo_url": "",
    "website": "",
    "description": null,
    "extra_data": {
      "gocryptoId": 3700
    },
    "zip_code": "1101"
  },
  {
    "id": "763c9db3-f0df-4cf1-a1f4-bc6a0c8ddf7b",
    "title": "Cherito Café",
    "address": "Residencial Alturas de Tenerife, Paseo Cordova #15-C",
    "country": "SV",
    "city": "Santa Tecla",
    "lat": "13.651912",
    "lng": "-89.292441",
    "accepted_cryptos": [
      "BTC",
      "UST"
    ],
    "tags": [
      "food_and_drink",
      "retail"
    ],
    "phone": null,
    "logo_url": "https://s3.eu-central-1.amazonaws.com/public.elipay.com/live-3514d179aac2/source/images/166d83adf0bc452dba0e0105eabd4d4e.png",
    "website": "",
    "description": null,
    "extra_data": {
      "gocryptoId": 3549
    },
    "zip_code": "1101"
  },
  {
    "id": "6460a649-227c-4f22-ace9-e38b01ebc525",
    "title": "Cherito Café Movil",
    "address": "Calle Principal #44 Costa Azul",
    "country": "SV",
    "city": "Guaymango, Ahuachapán",
    "lat": "13.771116",
    "lng": "-89.807405",
    "accepted_cryptos": [
      "BTC",
      "UST"
    ],
    "tags": [
      "food_and_drink",
      "retail"
    ],
    "phone": null,
    "logo_url": "https://s3.eu-central-1.amazonaws.com/public.elipay.com/live-3514d179aac2/source/images/9988badf06b94cdba1724b419b5cba15.jpg",
    "website": "https://tierrabendita.net",
    "description": null,
    "extra_data": {
      "gocryptoId": 3293
    },
    "zip_code": "02108"
  },
  {
    "id": "308ed17a-f8a2-4574-a501-0498b654fb93",
    "title": "Chivi Rico",
    "address": "Plaza Mango, Calle Antigua Ferrocarril",
    "country": "SV",
    "city": "Antiguo Cuscatlan",
    "lat": "13.677502",
    "lng": "-89.244994",
    "accepted_cryptos": [
      "BTC",
      "UST"
    ],
    "tags": [
      "food_and_drink"
    ],
    "phone": null,
    "logo_url": "https://s3.eu-central-1.amazonaws.com/public.elipay.com/live-3514d179aac2/source/images/0917f0f3a7904a61b975b555bbbcb599.png",
    "website": "https://chiviricosv.com/",
    "description": null,
    "extra_data": {
      "gocryptoId": 3261
    },
    "zip_code": "1101"
  },
  {
    "id": "4b28ba42-9192-4607-9cdc-590ee9b04efd",
    "title": "City Smile",
    "address": "Chiltiupan Canton Taquillo calle Litoral 9128",
    "country": "SV",
    "city": "La Libertad",
    "lat": "13.505062",
    "lng": "-89.483437",
    "accepted_cryptos": [
      "BTC",
      "UST"
    ],
    "tags": [
      "services"
    ],
    "phone": null,
    "logo_url": "https://s3.eu-central-1.amazonaws.com/public.elipay.com/live-3514d179aac2/source/images/f87411e1af68483987e0582ab4f47354.jpg",
    "website": "https://www.mixo.io",
    "description": null,
    "extra_data": {
      "gocryptoId": 3485
    },
    "zip_code": "1101"
  },
  {
    "id": "26ac60cb-7825-4857-976c-b4554ce30400",
    "title": "Clinica Dr Brizuela",
    "address": "Hospital San Antonio Calle Aldea, Barrio San Antonio, Santa Ana",
    "country": "SV",
    "city": "Santa Ana",
    "lat": "13.982874",
    "lng": "-89.574141",
    "accepted_cryptos": [
      "BTC",
      "UST"
    ],
    "tags": [
      "services",
      "accepts_goc"
    ],
    "phone": null,
    "logo_url": "",
    "website": "",
    "description": null,
    "extra_data": {
      "gocryptoId": 3258
    },
    "zip_code": "1101"
  },
  {
    "id": "98e21d99-7f60-4728-9338-1b0a33659a4c",
    "title": "Clinica Medica Su Salud",
    "address": "2a Avenida Sur 1, 1-3 Edificio Diaz",
    "country": "SV",
    "city": "Santa Tecla",
    "lat": "13.672222",
    "lng": "-89.289033",
    "accepted_cryptos": [
      "BTC",
      "UST"
    ],
    "tags": [
      "services"
    ],
    "phone": null,
    "logo_url": "https://s3.eu-central-1.amazonaws.com/public.elipay.com/live-3514d179aac2/source/images/b697da8a3eab4262977016721b747151.jpg",
    "website": "",
    "description": null,
    "extra_data": {
      "gocryptoId": 4090
    },
    "zip_code": "1101"
  },
  {
    "id": "01071f9c-1088-4f3e-8ee0-af1461497be0",
    "title": "Clínica pediátrica Dr. Ángel Duarte",
    "address": "Avenida Bernal Plaza Alcalá local 205",
    "country": "SV",
    "city": "San Salvador",
    "lat": "13.713850",
    "lng": "-89.217036",
    "accepted_cryptos": [
      "BTC",
      "UST"
    ],
    "tags": [
      "services",
      "retail"
    ],
    "phone": null,
    "logo_url": "",
    "website": "",
    "description": null,
    "extra_data": {
      "gocryptoId": 3231
    },
    "zip_code": "1101"
  },
  {
    "id": "c58bd619-7422-4876-a2dc-a1bc81793d1b",
    "title": "Coccole Boutique",
    "address": "Calle Nueva No.1 y 71 Avenida Sur, Cond 71 Apto 702 nivel 7, Col Escalón",
    "country": "SV",
    "city": "San Salvador",
    "lat": "13.698962",
    "lng": "-89.229119",
    "accepted_cryptos": [
      "BTC",
      "UST"
    ],
    "tags": [
      "retail",
      "fashion"
    ],
    "phone": null,
    "logo_url": "https://s3.eu-central-1.amazonaws.com/public.elipay.com/live-3514d179aac2/source/images/68b97a9a43aa4c95998841ad32506a56.jpg",
    "website": "",
    "description": null,
    "extra_data": {
      "gocryptoId": 3653
    },
    "zip_code": "1101"
  },
  {
    "id": "585c07d0-a21c-4010-b9cb-0f5e20940782",
    "title": "Conchita Salón",
    "address": "Calle Principal Zacamil, Metrópolis 1, Local 28a, Mejicanos",
    "country": "SV",
    "city": "San Salvador",
    "lat": "13.730005",
    "lng": "-89.210031",
    "accepted_cryptos": [
      "BTC",
      "UST"
    ],
    "tags": [
      "fashion",
      "retail"
    ],
    "phone": null,
    "logo_url": "",
    "website": "",
    "description": null,
    "extra_data": {
      "gocryptoId": 3245
    },
    "zip_code": "1101"
  },
  {
    "id": "6250b7e3-67ef-42a9-a52a-44836a0129b4",
    "title": "Confort Pampers",
    "address": "Ciudad Marsella, Quartier 3 Póligono, casa # 8, San Juan Opico",
    "country": "SV",
    "city": "La Libertad",
    "lat": "13.876387",
    "lng": "-89.359078",
    "accepted_cryptos": [
      "BTC",
      "UST"
    ],
    "tags": [
      "retail"
    ],
    "phone": null,
    "logo_url": "",
    "website": "",
    "description": null,
    "extra_data": {
      "gocryptoId": 3803
    },
    "zip_code": "1101"
  },
  {
    "id": "bbbfd3cd-3f0d-40d8-af22-f7bfe0ed6170",
    "title": "Cosas cositas y mas",
    "address": "Colonia Manuel Jose Arce, Calle Douglas Varela, Centro Comercial COOPEFA, Local A-13",
    "country": "SV",
    "city": "San Salvador",
    "lat": "13.685483",
    "lng": "-89.231185",
    "accepted_cryptos": [
      "BTC",
      "UST"
    ],
    "tags": [
      "fashion",
      "retail"
    ],
    "phone": null,
    "logo_url": "https://s3.eu-central-1.amazonaws.com/public.elipay.com/live-3514d179aac2/source/images/ddfc7073dc964ac49a05e299cf8a02d9.jpg",
    "website": "https://instagram.com/cosascositasymassv/",
    "description": null,
    "extra_data": {
      "gocryptoId": 3172
    },
    "zip_code": "1101"
  },
  {
    "id": "a303ee13-acdc-4e2f-8989-63f2414a0612",
    "title": "Creo Sonrisas Clínica Dental",
    "address": "Santa tecla Jardines de Merliot Ciudad Merliot calle Chiltiupan 12pg  pl -2",
    "country": "SV",
    "city": "La Libertad",
    "lat": "13.679937",
    "lng": "-89.271937",
    "accepted_cryptos": [
      "BTC",
      "UST"
    ],
    "tags": [
      "services",
      "retail"
    ],
    "phone": null,
    "logo_url": "https://s3.eu-central-1.amazonaws.com/public.elipay.com/live-3514d179aac2/source/images/5675afb8a75c4b759d3d0a5ba2052500.png",
    "website": "",
    "description": null,
    "extra_data": {
      "gocryptoId": 3768
    },
    "zip_code": "1101"
  },
  {
    "id": "1e26e94a-f395-420a-8ebb-a2dd41bcdcf9",
    "title": "D´Buey Parrillada y Bar",
    "address": "Urbanizacion La Sultana Calle Las Rosas Poligono D Numero H-2",
    "country": "SV",
    "city": "Antiguo Cuscatlan",
    "lat": "13.678187",
    "lng": "-89.243938",
    "accepted_cryptos": [
      "BTC",
      "UST",
      "NAKA_CARD"
    ],
    "tags": [
      "food_and_drink",
      "entertainment",
      "NAKA"
    ],
    "phone": null,
    "logo_url": "https://s3.eu-central-1.amazonaws.com/public.elipay.com/live-3514d179aac2/source/images/cde36c57b24b45c9bb91a8ec7839e769.jpg",
    "website": "",
    "description": null,
    "extra_data": {
      "gocryptoId": 3285
    },
    "zip_code": "1101"
  },
  {
    "id": "211cd5d2-9f1f-48c4-be7b-b454b5a6ecba",
    "title": "Deliketo",
    "address": "Colonia Jardines de Guadalupe, Calle Mediterraneo #5, Poligono 5",
    "country": "SV",
    "city": "Antiguo Cuscatlan",
    "lat": "13.678631",
    "lng": "-89.238502",
    "accepted_cryptos": [
      "BTC",
      "UST",
      "NAKA_CARD"
    ],
    "tags": [
      "food_and_drink",
      "NAKA"
    ],
    "phone": null,
    "logo_url": "https://s3.eu-central-1.amazonaws.com/public.elipay.com/live-3514d179aac2/source/images/154db098684e4397905c2042b224b114.jpg",
    "website": "",
    "description": null,
    "extra_data": {
      "gocryptoId": 3673
    },
    "zip_code": "1101"
  },
  {
    "id": "b97706da-07df-4201-a2dd-dafdd0a4afc0",
    "title": "Delimaya",
    "address": "Colonia Jardines de Guadalupe, Calle Mediterraneo 1-Conte",
    "country": "SV",
    "city": "Antiguo Cuscatlan",
    "lat": "13.681213",
    "lng": "-89.239484",
    "accepted_cryptos": [
      "BTC",
      "UST"
    ],
    "tags": [
      "food_and_drink"
    ],
    "phone": null,
    "logo_url": "https://s3.eu-central-1.amazonaws.com/public.elipay.com/live-3514d179aac2/source/images/ec2bb79121ed427393523f469376bdac.png",
    "website": "",
    "description": null,
    "extra_data": {
      "gocryptoId": 3480
    },
    "zip_code": "1101"
  },
  {
    "id": "159eb838-97b6-4f60-a66d-92f28db90dbb",
    "title": "Dra. Roxana Estrada Milla, Clínica de Ortodoncia",
    "address": "Boulevard Santa Elena, Centro Comercial, Atrium Plaza Local #4",
    "country": "SV",
    "city": "La Libertad",
    "lat": "13.669384",
    "lng": "-89.255964",
    "accepted_cryptos": [
      "BTC",
      "UST"
    ],
    "tags": [
      "services",
      "retail"
    ],
    "phone": null,
    "logo_url": "",
    "website": "",
    "description": null,
    "extra_data": {
      "gocryptoId": 3237
    },
    "zip_code": "1101"
  },
  {
    "id": "e8412ca6-bec1-4131-9389-085e8245c7de",
    "title": "Dr. iPhone",
    "address": "Reparto los heroes calle gavidia No 9 San Salvador",
    "country": "SV",
    "city": "San Salvador",
    "lat": "13.682813",
    "lng": "-89.223937",
    "accepted_cryptos": [
      "BTC",
      "UST"
    ],
    "tags": [
      "electronics",
      "retail"
    ],
    "phone": null,
    "logo_url": "",
    "website": "",
    "description": null,
    "extra_data": {
      "gocryptoId": 3303
    },
    "zip_code": "1101"
  },
  {
    "id": "1b849c27-6cce-4861-8683-5c3840336c0c",
    "title": "DrPc+",
    "address": "Urbanización la Sultana 2 Calle Antiguo Cuscatlán, Polígono Q #6",
    "country": "SV",
    "city": "La Libertad",
    "lat": "13.672937",
    "lng": "-89.239437",
    "accepted_cryptos": [
      "BTC",
      "UST"
    ],
    "tags": [
      "electronics",
      "retail"
    ],
    "phone": null,
    "logo_url": "",
    "website": "",
    "description": null,
    "extra_data": {
      "gocryptoId": 3287
    },
    "zip_code": "1101"
  },
  {
    "id": "8675df95-4da0-4207-83ca-cb38faf1d7cc",
    "title": "Dulceria y Variedades Fátima",
    "address": "Barrio El Centro, Calle Manuel Enrique Araujo, Porción #1",
    "country": "SV",
    "city": "Alegría",
    "lat": "13.508723",
    "lng": "-88.490185",
    "accepted_cryptos": [
      "BTC",
      "UST"
    ],
    "tags": [
      "food_and_drink",
      "retail"
    ],
    "phone": null,
    "logo_url": "",
    "website": "",
    "description": null,
    "extra_data": {
      "gocryptoId": 3341
    },
    "zip_code": "1101"
  },
  {
    "id": "52f707f7-eecb-4f8a-8471-95ddda3a53ae",
    "title": "EC Tours",
    "address": "17 calle Oriente Colonia Santa Eugenia casa #283",
    "country": "SV",
    "city": "San Salvador",
    "lat": "13.707012",
    "lng": "-89.189297",
    "accepted_cryptos": [
      "BTC",
      "UST",
      "NAKA_CARD"
    ],
    "tags": [
      "travel",
      "entertainment",
      "NAKA"
    ],
    "phone": null,
    "logo_url": "https://s3.eu-central-1.amazonaws.com/public.elipay.com/live-3514d179aac2/source/images/a10d20a189424df1bc23381c5a0e12df.png",
    "website": "https://www.ectourselsalvador.com",
    "description": null,
    "extra_data": {
      "gocryptoId": 3393
    },
    "zip_code": "1101"
  },
  {
    "id": "2819505d-cd59-4d39-9566-244bbb31f8ce",
    "title": "El Bajon",
    "address": "Paseo El Carmen, Plaza Castellar, Local #10, Santa Tecla, La Libertad",
    "country": "SV",
    "city": "Santa Tecla",
    "lat": "13.675349",
    "lng": "-89.286207",
    "accepted_cryptos": [
      "BTC",
      "UST"
    ],
    "tags": [
      "food_and_drink"
    ],
    "phone": null,
    "logo_url": "https://s3.eu-central-1.amazonaws.com/public.elipay.com/live-3514d179aac2/source/images/2490acf30a684688a407273003a77657.jpg",
    "website": "",
    "description": null,
    "extra_data": {
      "gocryptoId": 3997
    },
    "zip_code": "1101"
  },
  {
    "id": "2cd5a35b-7757-4ba9-ae84-fa1a618ee16e",
    "title": "El Gato Dorado",
    "address": "Mercado El Angel puesto 119 Al 121",
    "country": "SV",
    "city": "Sonsonate",
    "lat": "13.718913",
    "lng": "-89.724266",
    "accepted_cryptos": [
      "BTC",
      "UST"
    ],
    "tags": [
      "services",
      "retail"
    ],
    "phone": null,
    "logo_url": "",
    "website": "",
    "description": null,
    "extra_data": {
      "gocryptoId": 3717
    },
    "zip_code": "1101"
  },
  {
    "id": "05f79f61-2831-4060-8321-eb94bff751a1",
    "title": "El Salon de Lucia",
    "address": "Com Urb Montemar Jacarandas ll pje 1 pg. J casa 19 L Colon",
    "country": "SV",
    "city": "La Libertad",
    "lat": "13.739487",
    "lng": "-89.352734",
    "accepted_cryptos": [
      "BTC",
      "UST"
    ],
    "tags": [
      "fashion",
      "retail"
    ],
    "phone": null,
    "logo_url": "",
    "website": "",
    "description": null,
    "extra_data": {
      "gocryptoId": 3773
    },
    "zip_code": "1101"
  },
  {
    "id": "1a2ece1c-388c-4f8b-af84-674367b4eb0c",
    "title": "El Xolo",
    "address": "Avenida La Revolución, Colonia San Benito, Museo Nacional de Antropología MUNA",
    "country": "SV",
    "city": "San Salvador",
    "lat": "13.686755",
    "lng": "-89.238393",
    "accepted_cryptos": [
      "BTC",
      "UST"
    ],
    "tags": [
      "food_and_drink"
    ],
    "phone": null,
    "logo_url": "https://s3.eu-central-1.amazonaws.com/public.elipay.com/live-3514d179aac2/source/images/179b6ca7e5a546a6a329e0ee93e50fdd.jpg",
    "website": "https://elxolomaiz.com/",
    "description": null,
    "extra_data": {
      "gocryptoId": 3077
    },
    "zip_code": "01101"
  },
  {
    "id": "29fc20cd-e8eb-4722-b4c4-6e5d36b08a95",
    "title": "Emda's Sports",
    "address": "Colonia Ciudad Pacífica, Segunda etapa, Calle Principal, Polígono 8-A #79",
    "country": "SV",
    "city": "San Miguel",
    "lat": "13.482526",
    "lng": "-88.216284",
    "accepted_cryptos": [
      "BTC",
      "UST"
    ],
    "tags": [
      "services",
      "retail"
    ],
    "phone": null,
    "logo_url": "https://s3.eu-central-1.amazonaws.com/public.elipay.com/live-3514d179aac2/source/images/89f23e1d576b4e40b95e28959bfc38a8.jpeg",
    "website": "",
    "description": null,
    "extra_data": {
      "gocryptoId": 4027
    },
    "zip_code": "1101"
  },
  {
    "id": "93ea58f4-5220-449a-a63b-bc633ad9f913",
    "title": "Equimas Santa Tecla",
    "address": "2a Calle Ote 6-2, Santa Tecla",
    "country": "SV",
    "city": "La Libertad",
    "lat": "13.672938",
    "lng": "-89.282438",
    "accepted_cryptos": [
      "BTC",
      "UST"
    ],
    "tags": [
      "retail",
      "services"
    ],
    "phone": null,
    "logo_url": "https://s3.eu-central-1.amazonaws.com/public.elipay.com/live-3514d179aac2/source/images/6603dd8bd0894946951017032bdad748.jpg",
    "website": "",
    "description": null,
    "extra_data": {
      "gocryptoId": 3852
    },
    "zip_code": "1101"
  },
  {
    "id": "af7cb28a-c047-4d95-8c4f-3a57ac6e1fed",
    "title": "Estudio JM Salon",
    "address": "6 Av Sur y Av Roosevelt #36 Centro Local #2, Soyapango",
    "country": "SV",
    "city": "San Salvador",
    "lat": "13.703302",
    "lng": "-89.148127",
    "accepted_cryptos": [
      "BTC",
      "UST"
    ],
    "tags": [
      "services",
      "retail"
    ],
    "phone": null,
    "logo_url": "",
    "website": "",
    "description": null,
    "extra_data": {
      "gocryptoId": 4039
    },
    "zip_code": "1101"
  },
  {
    "id": "052a9a42-7c86-47ba-ae29-53f11e57d88c",
    "title": "Fagioliestef",
    "address": "4ta calle poniente 3 y 5 avenida sur Ataco",
    "country": "SV",
    "city": "Ahuachapan",
    "lat": "13.869087",
    "lng": "-89.853891",
    "accepted_cryptos": [
      "BTC",
      "UST"
    ],
    "tags": [
      "fashion",
      "retail"
    ],
    "phone": null,
    "logo_url": "",
    "website": "",
    "description": null,
    "extra_data": {
      "gocryptoId": 3367
    },
    "zip_code": "1101"
  },
  {
    "id": "93930b0e-ef22-4e69-81eb-cc94c4bb43e0",
    "title": "Farmacia Farmalife Nuevo Lourdes",
    "address": "Calle principal Block 47-A local 11 Urbanización nuevo Lourdes Colon la Libertad",
    "country": "SV",
    "city": "La Libertad",
    "lat": "13.724312",
    "lng": "-89.380187",
    "accepted_cryptos": [
      "BTC",
      "UST",
      "NAKA_CARD"
    ],
    "tags": [
      "services",
      "retail",
      "NAKA"
    ],
    "phone": null,
    "logo_url": "https://s3.eu-central-1.amazonaws.com/public.elipay.com/live-3514d179aac2/source/images/18ad5bccc20b4706b147ae73fffc6820.png",
    "website": "",
    "description": null,
    "extra_data": {
      "gocryptoId": 3681
    },
    "zip_code": "1101"
  },
  {
    "id": "17255758-3d28-4a78-b3c4-5bd793ac0eb3",
    "title": "Ferreteria Bonilla",
    "address": "Calle Cuscatlan Oriente y pasaje 4",
    "country": "SV",
    "city": "Antiguo Cuscatlan",
    "lat": "13.672438",
    "lng": "-89.240313",
    "accepted_cryptos": [
      "BTC",
      "UST",
      "NAKA_CARD"
    ],
    "tags": [
      "home_and_garden",
      "NAKA"
    ],
    "phone": null,
    "logo_url": "",
    "website": "",
    "description": null,
    "extra_data": {
      "gocryptoId": 3316
    },
    "zip_code": "1101"
  },
  {
    "id": "86459976-8e4f-44ac-ac7c-2fb1755eb494",
    "title": "Fisionutri clínica de atención nutricional",
    "address": "Colonia Medica, Hospital Instituto De Ojos, Local 0-4",
    "country": "SV",
    "city": "San Salvador",
    "lat": "13.707315",
    "lng": "-89.201276",
    "accepted_cryptos": [
      "BTC",
      "UST"
    ],
    "tags": [
      "services",
      "retail"
    ],
    "phone": null,
    "logo_url": "https://s3.eu-central-1.amazonaws.com/public.elipay.com/live-3514d179aac2/source/images/6aa5aa93bfae448e98be83b6bbbf57c4.png",
    "website": "",
    "description": null,
    "extra_data": {
      "gocryptoId": 3259
    },
    "zip_code": "1101"
  },
  {
    "id": "453e501c-e0c1-4f1a-9b00-99a2aaf904d4",
    "title": "Fix Movil Center",
    "address": "Lotificación Trejo Pacheco, Av Andre Tierra, San Miguel",
    "country": "SV",
    "city": "San Miguel",
    "lat": "13.491062",
    "lng": "-88.178188",
    "accepted_cryptos": [
      "BTC",
      "UST"
    ],
    "tags": [
      "services",
      "electronics"
    ],
    "phone": null,
    "logo_url": "https://s3.eu-central-1.amazonaws.com/public.elipay.com/live-3514d179aac2/source/images/ed51c4c34f434d689bac063cfccec190.jpg",
    "website": "",
    "description": null,
    "extra_data": {
      "gocryptoId": 3981
    },
    "zip_code": "1101"
  },
  {
    "id": "2f7a6e40-74ed-4801-8d15-306ab7903fd7",
    "title": "Flores de Santa Elena",
    "address": "Urbanizacion Santa Elena, Condominio Atrium Plaza, área común frente local 6 y 7 nivel 2",
    "country": "SV",
    "city": "La Libertad",
    "lat": "13.668605",
    "lng": "-89.256364",
    "accepted_cryptos": [
      "BTC",
      "UST"
    ],
    "tags": [
      "home_and_garden"
    ],
    "phone": null,
    "logo_url": "",
    "website": "",
    "description": null,
    "extra_data": {
      "gocryptoId": 3814
    },
    "zip_code": "1101"
  },
  {
    "id": "51ba422d-f6a5-4286-bd20-3d24fa2d714e",
    "title": "Forros Everywhere",
    "address": "Urbanización La Carmita 2, Calle Las Oscuranas #3",
    "country": "SV",
    "city": "San Salvador",
    "lat": "13.707043",
    "lng": "-89.222523",
    "accepted_cryptos": [
      "BTC",
      "UST"
    ],
    "tags": [
      "services",
      "retail"
    ],
    "phone": null,
    "logo_url": "https://s3.eu-central-1.amazonaws.com/public.elipay.com/live-3514d179aac2/source/images/56867aaf0a274e94a79ab70c668d846e.jpg",
    "website": "",
    "description": null,
    "extra_data": {
      "gocryptoId": 4049
    },
    "zip_code": "1101"
  },
  {
    "id": "78766032-4ff4-4f3b-bb95-c9fc330bce4f",
    "title": "Fragancias H&M",
    "address": "Res Las Lomas, Calle 1 Pje San Carlos No 20 Bk B",
    "country": "SV",
    "city": "San Salvador",
    "lat": "13.671311",
    "lng": "-89.231731",
    "accepted_cryptos": [
      "BTC",
      "UST",
      "NAKA_CARD"
    ],
    "tags": [
      "fashion",
      "retail",
      "NAKA"
    ],
    "phone": null,
    "logo_url": "",
    "website": "",
    "description": null,
    "extra_data": {
      "gocryptoId": 3697
    },
    "zip_code": "1101"
  },
  {
    "id": "e5663195-b432-487d-8a4b-22d6560fce47",
    "title": "Gessen & Chochy Alta Costura",
    "address": "Residencial Arturo Lomas de San Francisco, Avenida Albert Einstein block C #1",
    "country": "SV",
    "city": "Antiguo Cuscatlan",
    "lat": "13.679688",
    "lng": "-89.234812",
    "accepted_cryptos": [
      "BTC",
      "UST"
    ],
    "tags": [
      "fashion"
    ],
    "phone": null,
    "logo_url": "https://s3.eu-central-1.amazonaws.com/public.elipay.com/live-3514d179aac2/source/images/a25b760c37bf4f708e4625690cc6c763.jpg",
    "website": "",
    "description": null,
    "extra_data": {
      "gocryptoId": 3774
    },
    "zip_code": "1101"
  },
  {
    "id": "9e4b0c0c-85a5-4da3-a227-d6c8c109234a",
    "title": "Gimnasio Active Motion",
    "address": "Calle Albert Einstein, Block J, #3",
    "country": "SV",
    "city": "Antiguo Cuscatlan",
    "lat": "13.676530",
    "lng": "-89.235568",
    "accepted_cryptos": [
      "BTC",
      "UST",
      "NAKA_CARD"
    ],
    "tags": [
      "sports_and_leisure",
      "NAKA"
    ],
    "phone": null,
    "logo_url": "https://s3.eu-central-1.amazonaws.com/public.elipay.com/live-3514d179aac2/source/images/df70caebb0a048d6bc1282be229812ba.jpg",
    "website": "",
    "description": null,
    "extra_data": {
      "gocryptoId": 3662
    },
    "zip_code": "1101"
  },
  {
    "id": "0d75ba87-d1c5-4d89-bb24-eb60b24bf912",
    "title": "Green Life San Salvador",
    "address": "Avenue Vista Hermosa 269",
    "country": "SV",
    "city": "San Salvador",
    "lat": "13.684120",
    "lng": "-89.210252",
    "accepted_cryptos": [
      "BTC",
      "UST",
      "NAKA_CARD"
    ],
    "tags": [
      "services",
      "food_and_drink",
      "travel",
      "NAKA"
    ],
    "phone": null,
    "logo_url": "https://s3.eu-central-1.amazonaws.com/public.elipay.com/live-3514d179aac2/source/images/8179e771056d438f8eb0a91a6a34acae.jpg",
    "website": "https://green-life-bed-and-breakfast.negocio.site/",
    "description": null,
    "extra_data": {
      "gocryptoId": 3232
    },
    "zip_code": "1102"
  },
  {
    "id": "3af671a5-ed38-44f4-8634-18999c9b5e7e",
    "title": "Grupo 3 Tours",
    "address": "89 av Nte local #2 Colonia Escalon Edificio La Paz",
    "country": "SV",
    "city": "San Salvador",
    "lat": "13.704688",
    "lng": "-89.241937",
    "accepted_cryptos": [
      "BTC",
      "UST"
    ],
    "tags": [
      "services",
      "travel"
    ],
    "phone": null,
    "logo_url": "https://s3.eu-central-1.amazonaws.com/public.elipay.com/live-3514d179aac2/source/images/83c20629db644a1d96529d4a05cab8d5.png",
    "website": "",
    "description": null,
    "extra_data": {
      "gocryptoId": 3294
    },
    "zip_code": "1101"
  },
  {
    "id": "ddeb8f4a-dfa0-4805-ae36-b78eebe82325",
    "title": "Grupo Pro Motors",
    "address": "Boulevard Orden de Malta #3",
    "country": "SV",
    "city": "La Libertad",
    "lat": "13.662360",
    "lng": "-89.258754",
    "accepted_cryptos": [
      "BTC",
      "UST"
    ],
    "tags": [
      "auto_and_moto",
      "retail"
    ],
    "phone": null,
    "logo_url": "https://s3.eu-central-1.amazonaws.com/public.elipay.com/live-3514d179aac2/source/images/9c41d334aa9c4562825d71870afaa0c9.png",
    "website": "",
    "description": null,
    "extra_data": {
      "gocryptoId": 3270
    },
    "zip_code": "1101"
  },
  {
    "id": "7153707d-ca72-4212-ae09-f42e1f151206",
    "title": "Hams El Salvador",
    "address": "Av. De La Revolucion, Centro Comercial Presidente, nivel 4",
    "country": "SV",
    "city": "San Salvador",
    "lat": "13.691448",
    "lng": "-89.240801",
    "accepted_cryptos": [
      "BTC",
      "UST",
      "NAKA_CARD"
    ],
    "tags": [
      "food_and_drink",
      "entertainment",
      "NAKA"
    ],
    "phone": null,
    "logo_url": "https://s3.eu-central-1.amazonaws.com/public.elipay.com/live-3514d179aac2/source/images/08cfce63817c41379457b518f2ddb61b.png",
    "website": "",
    "description": null,
    "extra_data": {
      "gocryptoId": 3268
    },
    "zip_code": "1101"
  },
  {
    "id": "939b2369-7974-43e7-b186-a310c2c954c2",
    "title": "Hollywood Rent a Car",
    "address": "Barrio san francisco 1era calle oriente San Vicente",
    "country": "SV",
    "city": "San Vicente",
    "lat": "13.643990",
    "lng": "-88.780797",
    "accepted_cryptos": [
      "BTC",
      "UST"
    ],
    "tags": [
      "auto_and_moto",
      "retail"
    ],
    "phone": null,
    "logo_url": "",
    "website": "",
    "description": null,
    "extra_data": {
      "gocryptoId": 3720
    },
    "zip_code": "1101"
  },
  {
    "id": "c0ae3061-075f-46a9-a433-518b5c625855",
    "title": "Honolulu Escalon",
    "address": "Calle El Mirador #6032, Colonia Escalon",
    "country": "SV",
    "city": "San Salvador",
    "lat": "13.707055",
    "lng": "-89.257479",
    "accepted_cryptos": [
      "BTC",
      "UST"
    ],
    "tags": [
      "food_and_drink",
      "entertainment"
    ],
    "phone": null,
    "logo_url": "https://s3.eu-central-1.amazonaws.com/public.elipay.com/live-3514d179aac2/source/images/35538a4e22c248eb9743f82a81620b4c.jpg",
    "website": "",
    "description": null,
    "extra_data": {
      "gocryptoId": 3397
    },
    "zip_code": "1101"
  },
  {
    "id": "f37959af-0634-49f8-af50-f22b61b8d6b8",
    "title": "Hospital Jabes",
    "address": "13a Avenida Sur, entre 5a y 7a Calle Oriente #11",
    "country": "SV",
    "city": "Santa Ana",
    "lat": "13.991106",
    "lng": "-89.552284",
    "accepted_cryptos": [
      "BTC",
      "UST"
    ],
    "tags": [
      "services"
    ],
    "phone": null,
    "logo_url": "",
    "website": "",
    "description": null,
    "extra_data": {
      "gocryptoId": 3406
    },
    "zip_code": "1101"
  },
  {
    "id": "536340af-804f-4533-981c-7bb7721da6f3",
    "title": "Hostal Cielo Azul",
    "address": "Calle Sisimiles Pasaje Los Cedros 138a, Colonia Miramonte",
    "country": "SV",
    "city": "San Salvador",
    "lat": "13.714554",
    "lng": "-89.218789",
    "accepted_cryptos": [
      "BTC",
      "UST",
      "NAKA_CARD"
    ],
    "tags": [
      "services",
      "travel",
      "entertainment",
      "NAKA"
    ],
    "phone": null,
    "logo_url": "",
    "website": "https://www.facebook.com/people/Casa-de-hu%C3%A9sped-cielo-azul/100063623800680/",
    "description": null,
    "extra_data": {
      "gocryptoId": 3249
    },
    "zip_code": "1102"
  },
  {
    "id": "21fe5ccf-6f70-4442-8b8a-7ef3eb47222c",
    "title": "Hostal Los Heroes",
    "address": "Calle Miguel Ángel Gavidia 56",
    "country": "SV",
    "city": "San Salvador",
    "lat": "13.682378",
    "lng": "-89.225003",
    "accepted_cryptos": [
      "BTC",
      "UST",
      "NAKA_CARD"
    ],
    "tags": [
      "services",
      "food_and_drink",
      "entertainment",
      "NAKA"
    ],
    "phone": null,
    "logo_url": "",
    "website": "",
    "description": null,
    "extra_data": {
      "gocryptoId": 3233
    },
    "zip_code": "1102"
  },
  {
    "id": "f2724547-5018-4cd7-bdf4-56c73132ea12",
    "title": "Hotel Camelot",
    "address": "Barrio La Cruz 6a. Avenida Norte #501",
    "country": "SV",
    "city": "San Miguel",
    "lat": "13.485581",
    "lng": "-88.174539",
    "accepted_cryptos": [
      "BTC",
      "UST"
    ],
    "tags": [
      "services",
      "retail"
    ],
    "phone": null,
    "logo_url": "https://s3.eu-central-1.amazonaws.com/public.elipay.com/live-3514d179aac2/source/images/57591f8be8c34539a70ecfcaf8f360ca.jpg",
    "website": "",
    "description": null,
    "extra_data": {
      "gocryptoId": 3350
    },
    "zip_code": "1101"
  },
  {
    "id": "2e1fcc01-25eb-4c16-860d-9de6417f6b3d",
    "title": "Ice Snack SV",
    "address": "Nuevo Lourdes senda 8 polígono 59 casa 51",
    "country": "SV",
    "city": "La Libertad",
    "lat": "13.724813",
    "lng": "-89.379312",
    "accepted_cryptos": [
      "BTC",
      "UST"
    ],
    "tags": [
      "food_and_drink",
      "retail"
    ],
    "phone": null,
    "logo_url": "https://s3.eu-central-1.amazonaws.com/public.elipay.com/live-3514d179aac2/source/images/ff35e8de99cc4c7b966963aca962774b.png",
    "website": "",
    "description": null,
    "extra_data": {
      "gocryptoId": 3565
    },
    "zip_code": "1101"
  },
  {
    "id": "6899d063-b7cc-4967-81f1-a7b752cbe66a",
    "title": "Ilegal Tattoos",
    "address": "Centro Comercial Plaza Santorini Local B-4 Sobre La calle Elizabeth",
    "country": "SV",
    "city": "San Miguel",
    "lat": "13.457688",
    "lng": "-88.168813",
    "accepted_cryptos": [
      "BTC",
      "UST"
    ],
    "tags": [
      "services",
      "retail"
    ],
    "phone": null,
    "logo_url": "",
    "website": "",
    "description": null,
    "extra_data": {
      "gocryptoId": 3334
    },
    "zip_code": "1101"
  },
  {
    "id": "fcaf8e3c-0567-4caf-82cc-d96f85d135e6",
    "title": "Inside by Muebles Nuvesa, Plaza Emanuel",
    "address": "Plaza Emanuel, Urbanización Cumbres de Cuscatlán, Calle Conchagua, POL I Local 2a planta",
    "country": "SV",
    "city": "Antiguo Cuscatlan",
    "lat": "13.664021",
    "lng": "-89.249243",
    "accepted_cryptos": [
      "BTC",
      "UST",
      "NAKA_CARD"
    ],
    "tags": [
      "home_and_garden",
      "NAKA"
    ],
    "phone": null,
    "logo_url": "https://s3.eu-central-1.amazonaws.com/public.elipay.com/live-3514d179aac2/source/images/c0b01d6eb2054f44983d8051259fe7b2.jpg",
    "website": "https://www.facebook.com/nuvesa.muebles/",
    "description": null,
    "extra_data": {
      "gocryptoId": 3177
    },
    "zip_code": "1502"
  },
  {
    "id": "af4d228c-56a3-46e2-8d27-26f4d6c8ef3d",
    "title": "Integral automotriz",
    "address": "Sector Amatepec #68 Comunidad Labor 2 600, Soyapango",
    "country": "SV",
    "city": "San Salvador",
    "lat": "13.699167",
    "lng": "-89.163652",
    "accepted_cryptos": [
      "BTC",
      "UST"
    ],
    "tags": [
      "auto_and_moto",
      "retail"
    ],
    "phone": null,
    "logo_url": "",
    "website": "",
    "description": null,
    "extra_data": {
      "gocryptoId": 3399
    },
    "zip_code": "1101"
  },
  {
    "id": "eacb2859-02be-4013-99df-23c23d22708d",
    "title": "Jerusalem Barber Shop, Escalón",
    "address": "7 Cl Pte 4902, Col Escalón",
    "country": "SV",
    "city": "San Salvador",
    "lat": "13.706779",
    "lng": "-89.245178",
    "accepted_cryptos": [
      "BTC",
      "UST"
    ],
    "tags": [
      "retail",
      "services"
    ],
    "phone": null,
    "logo_url": "https://s3.eu-central-1.amazonaws.com/public.elipay.com/live-3514d179aac2/source/images/0e8d455bd84e474097590b05103f9aec.jpg",
    "website": "",
    "description": null,
    "extra_data": {
      "gocryptoId": 3995
    },
    "zip_code": "1101"
  },
  {
    "id": "9f63a5bf-2b2f-4775-a437-9371d33d8598",
    "title": "Jireh Phone",
    "address": "Cpl pgc # 6 colonia las Mercedes # 11",
    "country": "SV",
    "city": "Soyapango",
    "lat": "13.731538",
    "lng": "-89.151078",
    "accepted_cryptos": [
      "BTC",
      "UST"
    ],
    "tags": [
      "electronics",
      "retail"
    ],
    "phone": null,
    "logo_url": "",
    "website": "",
    "description": null,
    "extra_data": {
      "gocryptoId": 3635
    },
    "zip_code": "1101"
  },
  {
    "id": "fd6ddf5d-4c29-47f1-ac42-7b1c3c656049",
    "title": "Kaiblue",
    "address": "Calle a Playa El Majahual kilometro 41 1/2",
    "country": "SV",
    "city": "La Libertad",
    "lat": "13.492188",
    "lng": "-89.370563",
    "accepted_cryptos": [
      "BTC",
      "UST",
      "NAKA_CARD"
    ],
    "tags": [
      "food_and_drink",
      "retail",
      "NAKA"
    ],
    "phone": null,
    "logo_url": "https://s3.eu-central-1.amazonaws.com/public.elipay.com/live-3514d179aac2/source/images/064ad393525f4c12b44ce24c47383aaa.jpg",
    "website": "https://instagram.com/kaibluehotelyrestaurante/",
    "description": null,
    "extra_data": {
      "gocryptoId": 3166
    },
    "zip_code": "1101"
  },
  {
    "id": "83f2f232-fa0c-4d88-8ae1-60d8a6ced523",
    "title": "King's Gastrobar",
    "address": "Paseo General Escalon, Millenium Plaza, Local #123",
    "country": "SV",
    "city": "San Salvador",
    "lat": "13.701438",
    "lng": "-89.228812",
    "accepted_cryptos": [
      "BTC",
      "UST"
    ],
    "tags": [
      "food_and_drink"
    ],
    "phone": null,
    "logo_url": "https://s3.eu-central-1.amazonaws.com/public.elipay.com/live-3514d179aac2/source/images/aaedbd5ea0b640b58eed7f83b7250ef6.jpg",
    "website": "",
    "description": null,
    "extra_data": {
      "gocryptoId": 3224
    },
    "zip_code": "1101"
  },
  {
    "id": "08697da1-fc11-4eba-8f80-8220dbdc9574",
    "title": "La Carnicería",
    "address": "Colonia Santa Emilia, Avenida Canales #10",
    "country": "SV",
    "city": "San Miguel",
    "lat": "13.478656",
    "lng": "-88.166536",
    "accepted_cryptos": [
      "BTC",
      "UST"
    ],
    "tags": [
      "food_and_drink",
      "retail"
    ],
    "phone": null,
    "logo_url": "https://s3.eu-central-1.amazonaws.com/public.elipay.com/live-3514d179aac2/source/images/4d2728d542e04f67a5c47fb945978e19.png",
    "website": "",
    "description": null,
    "extra_data": {
      "gocryptoId": 3348
    },
    "zip_code": "1101"
  },
  {
    "id": "3c0f1876-375f-4a10-8bde-96681cd99c5a",
    "title": "Lali Beach",
    "address": "Calle principal 37",
    "country": "SV",
    "city": "Sonsonate",
    "lat": "13.534074",
    "lng": "-89.685753",
    "accepted_cryptos": [
      "BTC",
      "UST"
    ],
    "tags": [
      "travel"
    ],
    "phone": null,
    "logo_url": "https://s3.eu-central-1.amazonaws.com/public.elipay.com/live-3514d179aac2/source/images/e938f8c32d58449bad6fa5c4da8fec09.png",
    "website": "",
    "description": null,
    "extra_data": {
      "gocryptoId": 3562
    },
    "zip_code": "1101"
  },
  {
    "id": "fabbf172-d234-4e60-8e3e-ac70f2cc7d95",
    "title": "La Placita de Don Luis",
    "address": "Urbanizacion Jardines de Guadalupe, Calle del Mediterraneo Lote 5-Bis Pol Q",
    "country": "SV",
    "city": "Antiguo Cuscatlan",
    "lat": "13.678513",
    "lng": "-89.238391",
    "accepted_cryptos": [
      "BTC",
      "UST"
    ],
    "tags": [
      "food_and_drink"
    ],
    "phone": null,
    "logo_url": "",
    "website": "",
    "description": null,
    "extra_data": {
      "gocryptoId": 3695
    },
    "zip_code": "1101"
  },
  {
    "id": "12f4796e-c4b3-4d5c-a959-d6befdef3947",
    "title": "Latinoamérica Papelera y Librerías Balam",
    "address": "Centro Comercial Condominio Balam Quitze Local A #7, Paseo General Escalón",
    "country": "SV",
    "city": "San Salvador,  San Salvador",
    "lat": "13.702713",
    "lng": "-89.242641",
    "accepted_cryptos": [
      "BTC",
      "UST"
    ],
    "tags": [
      "services"
    ],
    "phone": null,
    "logo_url": "https://s3.eu-central-1.amazonaws.com/public.elipay.com/live-3514d179aac2/source/images/232b04595bc640f8b98f9dc93e3d9fc6.png",
    "website": "",
    "description": null,
    "extra_data": {
      "gocryptoId": 3415
    },
    "zip_code": "1101"
  },
  {
    "id": "a33a2978-c78f-40d5-bf26-9563baffecbf",
    "title": "Le Bon Waffle",
    "address": "4 Av Norte Colonia Francisco Menéndez no 2 y Pasaje Pablo Neruda Colón",
    "country": "SV",
    "city": "La Libertad",
    "lat": "13.724462",
    "lng": "-89.365641",
    "accepted_cryptos": [
      "BTC",
      "UST"
    ],
    "tags": [
      "food_and_drink",
      "retail"
    ],
    "phone": null,
    "logo_url": "",
    "website": "",
    "description": null,
    "extra_data": {
      "gocryptoId": 4224
    },
    "zip_code": "1101"
  },
  {
    "id": "0a4a77bd-036d-4c49-9888-6c72bdaf034c",
    "title": "LED Innovations San Salvador",
    "address": "Urbanización Reparto Los Héroes, local 15-B, San Salvador",
    "country": "SV",
    "city": "San Salvador",
    "lat": "13.680188",
    "lng": "-89.224937",
    "accepted_cryptos": [
      "BTC",
      "UST",
      "NAKA_CARD"
    ],
    "tags": [
      "electronics",
      "NAKA"
    ],
    "phone": null,
    "logo_url": "https://s3.eu-central-1.amazonaws.com/public.elipay.com/live-3514d179aac2/source/images/4d944d15574645ddbb3a56b106c7c875.jpg",
    "website": "",
    "description": null,
    "extra_data": {
      "gocryptoId": 3380
    },
    "zip_code": "1101"
  },
  {
    "id": "321563dd-e114-4cc4-90ad-64afecaf53f1",
    "title": "Librería y variedades Orellana",
    "address": "Barrio La Parroquia, Segunda Avenida norte #3",
    "country": "SV",
    "city": "Usulutan",
    "lat": "13.345562",
    "lng": "-88.439062",
    "accepted_cryptos": [
      "BTC",
      "UST"
    ],
    "tags": [
      "services",
      "retail"
    ],
    "phone": null,
    "logo_url": "https://s3.eu-central-1.amazonaws.com/public.elipay.com/live-3514d179aac2/source/images/3d723cfffc874920b0843c4f0d8750cf.png",
    "website": "",
    "description": null,
    "extra_data": {
      "gocryptoId": 3342
    },
    "zip_code": "1101"
  },
  {
    "id": "895b3b4b-8b91-487f-af37-3e26b7be6821",
    "title": "Life Spa",
    "address": "Av Sierra Nevada y Av 10 Plaza Miramonte",
    "country": "SV",
    "city": "San Salvador",
    "lat": "13.705862",
    "lng": "-89.219766",
    "accepted_cryptos": [
      "BTC",
      "UST"
    ],
    "tags": [
      "retail",
      "services"
    ],
    "phone": null,
    "logo_url": "https://s3.eu-central-1.amazonaws.com/public.elipay.com/live-3514d179aac2/source/images/01a1c91e09aa4ee4ad6468176bd4d2e1.jpg",
    "website": "",
    "description": null,
    "extra_data": {
      "gocryptoId": 4145
    },
    "zip_code": "1101"
  },
  {
    "id": "9ab2139d-9d7c-4680-abc6-d396a471da67",
    "title": "Linda Vista Gardens",
    "address": "Calle al Boqueron km 18 1/2, Cton. El Progreso, Santa Tecla, La Libertad",
    "country": "SV",
    "city": "Santa Tecla",
    "lat": "13.687038",
    "lng": "-89.280853",
    "accepted_cryptos": [
      "BTC",
      "UST"
    ],
    "tags": [
      "food_and_drink",
      "entertainment"
    ],
    "phone": null,
    "logo_url": "https://s3.eu-central-1.amazonaws.com/public.elipay.com/live-3514d179aac2/source/images/83f73f5fb1a04ae6ac40ccff10456385.png",
    "website": "",
    "description": null,
    "extra_data": {
      "gocryptoId": 3053
    },
    "zip_code": "01501"
  },
  {
    "id": "2c29f5cb-026d-4457-8857-31274a9cc831",
    "title": "Little Kids",
    "address": "Av la Capilla Local # 5 Plaza la Capilla",
    "country": "SV",
    "city": "San Salvador",
    "lat": "13.686996",
    "lng": "-89.245158",
    "accepted_cryptos": [
      "BTC",
      "UST"
    ],
    "tags": [
      "fashion",
      "retail"
    ],
    "phone": null,
    "logo_url": "https://s3.eu-central-1.amazonaws.com/public.elipay.com/live-3514d179aac2/source/images/f095a8893a4a424ab7b5330cdf648392.png",
    "website": "https://littlekidsv.com/",
    "description": null,
    "extra_data": {
      "gocryptoId": 3651
    },
    "zip_code": "1101"
  },
  {
    "id": "e15c0a15-d335-4f47-b7a0-5db987ac1193",
    "title": "Liv Liv",
    "address": "4 Calle Oriente, Ataco",
    "country": "SV",
    "city": "Ahuachapan",
    "lat": "13.868313",
    "lng": "-89.852078",
    "accepted_cryptos": [
      "BTC",
      "UST"
    ],
    "tags": [
      "fashion",
      "services"
    ],
    "phone": null,
    "logo_url": "",
    "website": "",
    "description": null,
    "extra_data": {
      "gocryptoId": 3369
    },
    "zip_code": "1101"
  },
  {
    "id": "9c4d9563-41d0-4030-ad06-316c4aadecd1",
    "title": "Lo De Guille Bodegón Argentino",
    "address": "La Rivera Plaza, 77 Avenida Norte",
    "country": "SV",
    "city": "San Salvador",
    "lat": "13.703730",
    "lng": "-89.234581",
    "accepted_cryptos": [
      "BTC",
      "UST"
    ],
    "tags": [
      "food_and_drink"
    ],
    "phone": null,
    "logo_url": "https://s3.eu-central-1.amazonaws.com/public.elipay.com/live-3514d179aac2/source/images/8fb60ad0de4a49e2a805a3622b996fd7.jpg",
    "website": "",
    "description": null,
    "extra_data": {
      "gocryptoId": 3262
    },
    "zip_code": "1101"
  },
  {
    "id": "435dccc9-4aa3-4f8e-bcd0-382b6251b6cb",
    "title": "Los Sabores de Catrina",
    "address": "Cuarta avenida norte y quinta calle oriente Barrio Concepción #20, Cojutepeque",
    "country": "SV",
    "city": "Cuscalan",
    "lat": "13.723812",
    "lng": "-88.933062",
    "accepted_cryptos": [
      "BTC",
      "UST"
    ],
    "tags": [
      "food_and_drink",
      "retail"
    ],
    "phone": null,
    "logo_url": "https://s3.eu-central-1.amazonaws.com/public.elipay.com/live-3514d179aac2/source/images/b016fddd41d046548d58f68aa1d980a7.jpg",
    "website": "",
    "description": null,
    "extra_data": {
      "gocryptoId": 3455
    },
    "zip_code": "1101"
  },
  {
    "id": "a531e337-3cab-4ce2-9b66-e8f37b489635",
    "title": "Marle Salon & Spa",
    "address": "Calle Alegria Urbanizacion Santa Elena #14",
    "country": "SV",
    "city": "Antiguo Cuscatlan",
    "lat": "13.669813",
    "lng": "-89.254062",
    "accepted_cryptos": [
      "BTC",
      "UST",
      "NAKA_CARD"
    ],
    "tags": [
      "fashion",
      "NAKA"
    ],
    "phone": null,
    "logo_url": "https://s3.eu-central-1.amazonaws.com/public.elipay.com/live-3514d179aac2/source/images/972754c70b644990b00257fbbfc51789.png",
    "website": "",
    "description": null,
    "extra_data": {
      "gocryptoId": 3825
    },
    "zip_code": "1101"
  },
  {
    "id": "7a727b51-7026-499e-bcf4-709b29ae9ef9",
    "title": "Mateo super store",
    "address": "Calle a San Antonio Abad, Condominio San Antonio #4-A",
    "country": "SV",
    "city": "San Salvador",
    "lat": "13.704550",
    "lng": "-89.220537",
    "accepted_cryptos": [
      "BTC",
      "UST",
      "NAKA_CARD"
    ],
    "tags": [
      "food_and_drink",
      "retail",
      "NAKA"
    ],
    "phone": null,
    "logo_url": "",
    "website": "",
    "description": null,
    "extra_data": {
      "gocryptoId": 3364
    },
    "zip_code": "1101"
  },
  {
    "id": "7cb90b2a-63da-4566-aacd-e92c9c541aaf",
    "title": "Misstic Salon Spa",
    "address": "Urbanizacion La Sultana III, Calle Mediterraneo #30A",
    "country": "SV",
    "city": "Antiguo Cuscatlan",
    "lat": "13.680459",
    "lng": "-89.241045",
    "accepted_cryptos": [
      "BTC",
      "UST",
      "NAKA_CARD"
    ],
    "tags": [
      "fashion",
      "NAKA"
    ],
    "phone": null,
    "logo_url": "https://s3.eu-central-1.amazonaws.com/public.elipay.com/live-3514d179aac2/source/images/63d9bd2642f34f6b99a9123f45ac90a9.jpg",
    "website": "",
    "description": null,
    "extra_data": {
      "gocryptoId": 3474
    },
    "zip_code": "1101"
  },
  {
    "id": "7ee61ff9-927e-4886-a537-a7b0389c2aad",
    "title": "Mi Taqueria Plaza Real",
    "address": "Cond Plaza Real Apto. L-A-6 Edif 21 Av Nte y Calle Arce",
    "country": "SV",
    "city": "San Salvador",
    "lat": "13.700262",
    "lng": "-89.202321",
    "accepted_cryptos": [
      "BTC",
      "UST",
      "NAKA_CARD"
    ],
    "tags": [
      "food_and_drink",
      "retail",
      "NAKA"
    ],
    "phone": null,
    "logo_url": "",
    "website": "",
    "description": null,
    "extra_data": {
      "gocryptoId": 3692
    },
    "zip_code": "1101"
  },
  {
    "id": "567179a2-2a70-402a-8f8a-582946ed6ea9",
    "title": "Mocci's Boutique",
    "address": "Condominio Roma, 2a Calle Oriente 5-6 apartamento 2, Santa Tecla",
    "country": "SV",
    "city": "La Libertad",
    "lat": "13.672886",
    "lng": "-89.282662",
    "accepted_cryptos": [
      "BTC",
      "UST"
    ],
    "tags": [
      "fashion",
      "retail"
    ],
    "phone": null,
    "logo_url": "https://s3.eu-central-1.amazonaws.com/public.elipay.com/live-3514d179aac2/source/images/16111319dcec49debd0ee27b2f8d0712.jpg",
    "website": "",
    "description": null,
    "extra_data": {
      "gocryptoId": 3723
    },
    "zip_code": "1101"
  },
  {
    "id": "313a8834-4a58-4e92-9ab2-9e11adcaa7d9",
    "title": "Monaco Barber Shop 1",
    "address": "4a Avenida Sur #402, Barrio El Calvario",
    "country": "SV",
    "city": "San Miguel",
    "lat": "13.478713",
    "lng": "-88.174252",
    "accepted_cryptos": [
      "BTC",
      "UST"
    ],
    "tags": [
      "services",
      "retail"
    ],
    "phone": null,
    "logo_url": "https://s3.eu-central-1.amazonaws.com/public.elipay.com/live-3514d179aac2/source/images/88328eddd75b421eaa289b1363d9c12d.jpg",
    "website": "",
    "description": null,
    "extra_data": {
      "gocryptoId": 3351
    },
    "zip_code": "1101"
  },
  {
    "id": "d8a9dd61-2e20-4740-ad56-3be07722c93a",
    "title": "Mundo Gamer",
    "address": "Residencial Primavera Senda las Ixoras Sur #42",
    "country": "SV",
    "city": "Santa Tecla",
    "lat": "13.668161",
    "lng": "-89.277322",
    "accepted_cryptos": [
      "BTC",
      "UST",
      "NAKA_CARD"
    ],
    "tags": [
      "electronics",
      "toys",
      "entertainment",
      "NAKA",
      "accepts_goc"
    ],
    "phone": null,
    "logo_url": "https://s3.eu-central-1.amazonaws.com/public.elipay.com/live-3514d179aac2/source/images/d3be2ca1577242aba3ae99accedb4100.png",
    "website": "https://www.facebook.com/mundogamersv21/",
    "description": null,
    "extra_data": {
      "gocryptoId": 3242
    },
    "zip_code": "1101"
  },
  {
    "id": "579187c7-eb03-4c2e-b7d3-8cffb7de4eed",
    "title": "Mundo Sports",
    "address": "1 Calle Poniente 7375, Ave Norte 3824-B, Colonia Escalon",
    "country": "SV",
    "city": "San Salvador",
    "lat": "13.702859",
    "lng": "-89.231162",
    "accepted_cryptos": [
      "BTC",
      "UST"
    ],
    "tags": [
      "fashion",
      "sports_and_leisure"
    ],
    "phone": null,
    "logo_url": "https://s3.eu-central-1.amazonaws.com/public.elipay.com/live-3514d179aac2/source/images/b2292e1317f1452995026b5f3bf25958.jpg",
    "website": "https://www.instagram.com/mundosportscamisetas/?hl=en",
    "description": null,
    "extra_data": {
      "gocryptoId": 3465
    },
    "zip_code": "1101"
  },
  {
    "id": "d4682d58-9f78-4088-88c3-d5d54c5c0471",
    "title": "Naveparts",
    "address": "21 calle poniente 3 avenida sur, Barrio San Nicolas, #1108",
    "country": "SV",
    "city": "San Miguel",
    "lat": "13.469254",
    "lng": "-88.176955",
    "accepted_cryptos": [
      "BTC",
      "UST"
    ],
    "tags": [
      "auto_and_moto",
      "retail"
    ],
    "phone": null,
    "logo_url": "",
    "website": "",
    "description": null,
    "extra_data": {
      "gocryptoId": 3347
    },
    "zip_code": "1101"
  },
  {
    "id": "d8cac17b-e523-4a1d-8385-fdb059136d69",
    "title": "Nevada Autotech",
    "address": "75 Av Nte y Ant C El Carmen, Colonia Escalon, #3925",
    "country": "SV",
    "city": "San Salvador",
    "lat": "13.709187",
    "lng": "-89.232688",
    "accepted_cryptos": [
      "BTC",
      "UST",
      "NAKA_CARD"
    ],
    "tags": [
      "auto_and_moto",
      "NAKA",
      "accepts_goc"
    ],
    "phone": null,
    "logo_url": "https://s3.eu-central-1.amazonaws.com/public.elipay.com/live-3514d179aac2/source/images/74746a9304aa46c2b6d9f21e4874941e.png",
    "website": "",
    "description": null,
    "extra_data": {
      "gocryptoId": 3202
    },
    "zip_code": "1102"
  },
  {
    "id": "76f4751b-7d51-4a2e-8d90-8a49e2126706",
    "title": "Nopal",
    "address": "Col San Rafael, Block A, Casa # 11",
    "country": "SV",
    "city": "San Juan Opico",
    "lat": "13.875866",
    "lng": "-89.358260",
    "accepted_cryptos": [
      "BTC",
      "UST",
      "NAKA_CARD"
    ],
    "tags": [
      "home_and_garden",
      "retail",
      "NAKA"
    ],
    "phone": null,
    "logo_url": "",
    "website": "",
    "description": null,
    "extra_data": {
      "gocryptoId": 3601
    },
    "zip_code": "1101"
  },
  {
    "id": "1522d137-125a-4695-ad57-18f677b35f44",
    "title": "OdontoPlus Clinic",
    "address": "Blvd Los Heroes 23 Cpte #10",
    "country": "SV",
    "city": "San Salvador",
    "lat": "13.712163",
    "lng": "-89.205797",
    "accepted_cryptos": [
      "BTC",
      "UST"
    ],
    "tags": [
      "services",
      "retail"
    ],
    "phone": null,
    "logo_url": "https://s3.eu-central-1.amazonaws.com/public.elipay.com/live-3514d179aac2/source/images/952667bf59654bb981b1a7f42d5b18d1.jpg",
    "website": "",
    "description": null,
    "extra_data": {
      "gocryptoId": 3864
    },
    "zip_code": "1101"
  },
  {
    "id": "5093f25b-c67e-4f09-bad1-f416b64c7ae9",
    "title": "Optika 2020 Unicentro",
    "address": "Reparto San Fernando, Calle La Fuente #9, Pol A, Ilopango",
    "country": "SV",
    "city": "San Salvador",
    "lat": "13.714266",
    "lng": "-89.141391",
    "accepted_cryptos": [
      "BTC",
      "UST"
    ],
    "tags": [
      "retail",
      "services"
    ],
    "phone": null,
    "logo_url": "https://s3.eu-central-1.amazonaws.com/public.elipay.com/live-3514d179aac2/source/images/e938657923794d6383e59d51ae2d870e.png",
    "website": "",
    "description": null,
    "extra_data": {
      "gocryptoId": 3627
    },
    "zip_code": "1101"
  },
  {
    "id": "758687f3-811c-4668-8bc5-6ab62cef952d",
    "title": "Outlaws Tattoo",
    "address": "Primera calle poniente #25 Urbanización la sultana 2",
    "country": "SV",
    "city": "Antiguo Cuscatlan",
    "lat": "13.673187",
    "lng": "-89.240437",
    "accepted_cryptos": [
      "BTC",
      "UST",
      "NAKA_CARD"
    ],
    "tags": [
      "fashion",
      "adult",
      "NAKA"
    ],
    "phone": null,
    "logo_url": "https://s3.eu-central-1.amazonaws.com/public.elipay.com/live-3514d179aac2/source/images/30842b80b8184ed789dca1bccc96b644.jpg",
    "website": "",
    "description": null,
    "extra_data": {
      "gocryptoId": 3286
    },
    "zip_code": "1101"
  },
  {
    "id": "1bbed4ed-6883-4893-8124-d4844fdaebb9",
    "title": "PetShopKare",
    "address": "Calle a Huizucar 19-C, Lomas de San Francisco, Reparto Los Heroes",
    "country": "SV",
    "city": "San Salvador",
    "lat": "13.672576",
    "lng": "-89.229257",
    "accepted_cryptos": [
      "BTC",
      "UST"
    ],
    "tags": [
      "pets",
      "services"
    ],
    "phone": null,
    "logo_url": "https://s3.eu-central-1.amazonaws.com/public.elipay.com/live-3514d179aac2/source/images/76f6e637413948528dd20aa6442d198c.jpg",
    "website": "",
    "description": null,
    "extra_data": {
      "gocryptoId": 3375
    },
    "zip_code": "1101"
  },
  {
    "id": "9ca326cc-57ad-4759-b28d-71cce7fded5e",
    "title": "Piel y Puntada",
    "address": "Carretera Litoral, Lotificación Las Flores Polígono 1, casa 2",
    "country": "SV",
    "city": "La Libertad",
    "lat": "13.487930",
    "lng": "-89.304010",
    "accepted_cryptos": [
      "BTC",
      "UST"
    ],
    "tags": [
      "fashion",
      "retail"
    ],
    "phone": null,
    "logo_url": "",
    "website": "",
    "description": null,
    "extra_data": {
      "gocryptoId": 3234
    },
    "zip_code": "1101"
  },
  {
    "id": "9e953cde-32f6-49a5-a454-d81b8a7959dd",
    "title": "Pinky Party",
    "address": "Cantòn San Jeronimo, Carretera Troncal del Norte, Km 31",
    "country": "SV",
    "city": "Guazapa",
    "lat": "13.922092",
    "lng": "-89.184608",
    "accepted_cryptos": [
      "BTC",
      "UST",
      "NAKA_CARD"
    ],
    "tags": [
      "services",
      "retail",
      "NAKA"
    ],
    "phone": null,
    "logo_url": "",
    "website": "",
    "description": null,
    "extra_data": {
      "gocryptoId": 3666
    },
    "zip_code": "1101"
  },
  {
    "id": "f7d3ef1f-7b1d-4ae3-8617-1999a8dbf5f5",
    "title": "Pinturas Orellana",
    "address": "6a Calle Oriente 4-4 Santa Tecla La Libertad",
    "country": "SV",
    "city": "Santa Tecla",
    "lat": "13.670787",
    "lng": "-89.284548",
    "accepted_cryptos": [
      "BTC",
      "UST"
    ],
    "tags": [
      "auto_and_moto"
    ],
    "phone": null,
    "logo_url": "https://s3.eu-central-1.amazonaws.com/public.elipay.com/live-3514d179aac2/source/images/b0bd3b0fe51d4fab9eb65fbf8f4432ed.jpg",
    "website": "",
    "description": null,
    "extra_data": {
      "gocryptoId": 4093
    },
    "zip_code": "1101"
  },
  {
    "id": "baee5482-1485-4ff9-8343-9a4c1767684d",
    "title": "Pizza La Santa Diabla",
    "address": "29 Calle Poniente 222, Edificio Santiago",
    "country": "SV",
    "city": "San Salvador",
    "lat": "13.713498",
    "lng": "-89.191483",
    "accepted_cryptos": [
      "BTC",
      "UST",
      "NAKA_CARD"
    ],
    "tags": [
      "food_and_drink",
      "NAKA"
    ],
    "phone": null,
    "logo_url": "https://s3.eu-central-1.amazonaws.com/public.elipay.com/live-3514d179aac2/source/images/ee559b9c817d41b3aaf6b7f95643e975.jpg",
    "website": "https://www.facebook.com/pizzalasantadiabla/",
    "description": null,
    "extra_data": {
      "gocryptoId": 3255
    },
    "zip_code": "1101"
  },
  {
    "id": "ab868158-65f4-4d1a-83fb-ff342397b116",
    "title": "Pizzeria La Parca",
    "address": "Residencial La Gloria, Calle Principal Poligono D-7 Casa #5, Mejicanos",
    "country": "SV",
    "city": "San Salvador",
    "lat": "13.739642",
    "lng": "-89.220474",
    "accepted_cryptos": [
      "BTC",
      "UST"
    ],
    "tags": [
      "food_and_drink",
      "retail"
    ],
    "phone": null,
    "logo_url": "https://s3.eu-central-1.amazonaws.com/public.elipay.com/live-3514d179aac2/source/images/c58f8fbd26774041804d4a627b37bef6.jpg",
    "website": "",
    "description": null,
    "extra_data": {
      "gocryptoId": 3724
    },
    "zip_code": "1101"
  },
  {
    "id": "8cd0dd93-6517-4867-869a-a3f09532b62b",
    "title": "Plantas y cactus el amanecer",
    "address": "Barrio El Centro Pasaje Grimaldi Segundda Avenida sur casa #201",
    "country": "SV",
    "city": "Alegría",
    "lat": "13.508838",
    "lng": "-88.488859",
    "accepted_cryptos": [
      "BTC",
      "UST"
    ],
    "tags": [
      "home_and_garden",
      "retail"
    ],
    "phone": null,
    "logo_url": "",
    "website": "",
    "description": null,
    "extra_data": {
      "gocryptoId": 3355
    },
    "zip_code": "1101"
  },
  {
    "id": "eb39367c-7ead-457c-a8d3-2dc915ffdce8",
    "title": "Punta Toro Basilea",
    "address": "Centro Comercial Basilea, Boulevard del Hipodromo N 2 - 502, San Salvador Local 16-B y 16-C",
    "country": "SV",
    "city": "San Salvador",
    "lat": "13.692982",
    "lng": "-89.236988",
    "accepted_cryptos": [
      "BTC",
      "UST"
    ],
    "tags": [
      "food_and_drink",
      "entertainment"
    ],
    "phone": null,
    "logo_url": "https://s3.eu-central-1.amazonaws.com/public.elipay.com/live-3514d179aac2/source/images/20c9465e4029449fbeb1323510329224.png",
    "website": "",
    "description": null,
    "extra_data": {
      "gocryptoId": 3051
    },
    "zip_code": "01501"
  },
  {
    "id": "25a136c0-bd15-4612-b9ac-36d246e94754",
    "title": "Queretaco",
    "address": "Res San Fernando Lomas de San Francisco Pje Coreas local #1 frente a Texaco Loma Linda",
    "country": "SV",
    "city": "San Salvador",
    "lat": "13.677713",
    "lng": "-89.225672",
    "accepted_cryptos": [
      "BTC",
      "UST"
    ],
    "tags": [
      "food_and_drink"
    ],
    "phone": null,
    "logo_url": "",
    "website": "",
    "description": null,
    "extra_data": {
      "gocryptoId": 3374
    },
    "zip_code": "1101"
  },
  {
    "id": "7fcf8ae7-2de3-4a30-a5fd-70e079821d70",
    "title": "Quirocenter Natural Wellness",
    "address": "65 Avenida Sur, Edificio Montresor #243, Local #6B",
    "country": "SV",
    "city": "San Salvador",
    "lat": "13.698343",
    "lng": "-89.223650",
    "accepted_cryptos": [
      "BTC",
      "UST"
    ],
    "tags": [
      "services",
      "disable_eurt"
    ],
    "phone": null,
    "logo_url": "https://s3.eu-central-1.amazonaws.com/public.elipay.com/live-3514d179aac2/source/images/820682e279004be0a500e46261ef73e8.jpg",
    "website": null,
    "description": null,
    "extra_data": {
      "gocryptoId": 3476
    },
    "zip_code": "1101"
  },
  {
    "id": "5fefcd4c-fb53-4dff-a5f1-920f9c18a9d7",
    "title": "Restaurante La Popuza",
    "address": "9a Calle Poniente #5023, Colonia Escalon",
    "country": "SV",
    "city": "San Salvador",
    "lat": "13.708642",
    "lng": "-89.246315",
    "accepted_cryptos": [
      "BTC",
      "UST"
    ],
    "tags": [
      "food_and_drink",
      "accepts_goc"
    ],
    "phone": null,
    "logo_url": "https://s3.eu-central-1.amazonaws.com/public.elipay.com/live-3514d179aac2/source/images/19f5652f6277495ea081f0729b6cb9eb.jpg",
    "website": "https://www.facebook.com/lapopuza/",
    "description": null,
    "extra_data": {
      "gocryptoId": 3212
    },
    "zip_code": "1102"
  },
  {
    "id": "6b429269-fe81-4001-baf3-2ae307d3ea50",
    "title": "Restaurante Laura",
    "address": "Mercado del Mar, Puerto de La Libertad, Restaurante Laura Local #8",
    "country": "SV",
    "city": "La Libertad",
    "lat": "13.486859",
    "lng": "-89.318298",
    "accepted_cryptos": [
      "BTC",
      "UST"
    ],
    "tags": [
      "food_and_drink",
      "retail"
    ],
    "phone": null,
    "logo_url": "https://s3.eu-central-1.amazonaws.com/public.elipay.com/live-3514d179aac2/source/images/a9b87ff9e46e467cbda7f942ffa769a2.jpg",
    "website": "",
    "description": null,
    "extra_data": {
      "gocryptoId": 3278
    },
    "zip_code": "1101"
  },
  {
    "id": "2e36ac5b-a48a-458b-9dba-208519e4134a",
    "title": "Restaurante Rio Fresco",
    "address": "Chiltiupan Colonia La Vega Canton Taquillo Calle Principal Poligono A #6",
    "country": "SV",
    "city": "Taquillo",
    "lat": "13.505209",
    "lng": "-89.483363",
    "accepted_cryptos": [
      "BTC",
      "UST",
      "NAKA_CARD"
    ],
    "tags": [
      "food_and_drink",
      "NAKA"
    ],
    "phone": null,
    "logo_url": "",
    "website": "",
    "description": null,
    "extra_data": {
      "gocryptoId": 3664
    },
    "zip_code": "1101"
  },
  {
    "id": "95572003-42fc-4f74-abf3-f476f2c97d2e",
    "title": "Safari Social Club",
    "address": "65 Avenida Sur, Casa 116, Colonia Escalón",
    "country": "SV",
    "city": "San Salvador",
    "lat": "13.700715",
    "lng": "-89.223737",
    "accepted_cryptos": [
      "BTC",
      "UST"
    ],
    "tags": [
      "services",
      "food_and_drink"
    ],
    "phone": null,
    "logo_url": "https://s3.eu-central-1.amazonaws.com/public.elipay.com/live-3514d179aac2/source/images/b258e8f90ea247ae84c3c1f35d1a657d.jpg",
    "website": "https://safarisocialclubsv.negocio.site/",
    "description": null,
    "extra_data": {
      "gocryptoId": 3290
    },
    "zip_code": "1101"
  },
  {
    "id": "7ce0548e-7930-43dc-a6cc-a7e6810ee486",
    "title": "Sala de Belleza Elena's Nails",
    "address": "6 Av Sur y Av Roosevelt #36 Centro Local #1, Soyapango",
    "country": "SV",
    "city": "San Salvador",
    "lat": "13.727701",
    "lng": "-89.183485",
    "accepted_cryptos": [
      "BTC",
      "UST"
    ],
    "tags": [
      "services",
      "retail"
    ],
    "phone": null,
    "logo_url": "",
    "website": "",
    "description": null,
    "extra_data": {
      "gocryptoId": 4052
    },
    "zip_code": "1101"
  },
  {
    "id": "7aefdfac-5ee0-4468-b6ae-1f57fb832016",
    "title": "Sastreria Cuscatlan",
    "address": "Urbanizacion Cumbres de Cuscatlan Pje #7 20-B Local 1",
    "country": "SV",
    "city": "Antiguo Cuscatlan",
    "lat": "13.671462",
    "lng": "-89.238672",
    "accepted_cryptos": [
      "BTC",
      "UST"
    ],
    "tags": [
      "fashion"
    ],
    "phone": null,
    "logo_url": "https://s3.eu-central-1.amazonaws.com/public.elipay.com/live-3514d179aac2/source/images/95397017274f4f799740998cfa8f63b2.jpg",
    "website": "",
    "description": null,
    "extra_data": {
      "gocryptoId": 4196
    },
    "zip_code": "1101"
  },
  {
    "id": "bd05aa75-c6e8-43c2-9762-8ee92b00cf64",
    "title": "Servicios Petroleros Latinoamericanos",
    "address": "9a Calle Ote, Col. Santa Monica, Block 10 No 9",
    "country": "SV",
    "city": "Santa Tecla",
    "lat": "13.679381",
    "lng": "-89.283924",
    "accepted_cryptos": [
      "BTC",
      "UST"
    ],
    "tags": [
      "services"
    ],
    "phone": null,
    "logo_url": "",
    "website": "",
    "description": null,
    "extra_data": {
      "gocryptoId": 3440
    },
    "zip_code": "1101"
  },
  {
    "id": "0ec771c6-f5a3-4e5e-abfe-cf5630afbb37",
    "title": "SLY Racing Shop",
    "address": "6 Cl Ote y 3 Av Nte, Gasolinera Texaco",
    "country": "SV",
    "city": "Ahuachapan",
    "lat": "13.923290",
    "lng": "-89.844817",
    "accepted_cryptos": [
      "BTC",
      "UST",
      "NAKA_CARD"
    ],
    "tags": [
      "auto_and_moto",
      "retail",
      "NAKA"
    ],
    "phone": null,
    "logo_url": "https://s3.eu-central-1.amazonaws.com/public.elipay.com/live-3514d179aac2/source/images/6c57be26c7294c13bd1515c7c576a048.jpg",
    "website": "",
    "description": null,
    "extra_data": {
      "gocryptoId": 3644
    },
    "zip_code": "1101"
  },
  {
    "id": "a7dd0f12-af1a-4e4f-9b3c-a1505a45cfce",
    "title": "Solo Mayoreo",
    "address": "Urbanizacion Altos de Guadalupe #231 K",
    "country": "SV",
    "city": "Antiguo Cuscatlan",
    "lat": "13.672638",
    "lng": "-89.236234",
    "accepted_cryptos": [
      "BTC",
      "UST"
    ],
    "tags": [
      "fashion"
    ],
    "phone": null,
    "logo_url": "",
    "website": "",
    "description": null,
    "extra_data": {
      "gocryptoId": 3640
    },
    "zip_code": "1101"
  },
  {
    "id": "b2bd1afa-8d2a-4c8f-a499-f574070a1904",
    "title": "Soluciones & Proyectos",
    "address": "Res Paris Poligono 23 Casa #20 Urbanizacion Ciudad Versalles",
    "country": "SV",
    "city": "La Libertad",
    "lat": "13.793403",
    "lng": "-89.359586",
    "accepted_cryptos": [
      "BTC",
      "UST",
      "NAKA_CARD"
    ],
    "tags": [
      "retail",
      "services",
      "NAKA"
    ],
    "phone": null,
    "logo_url": "",
    "website": "",
    "description": null,
    "extra_data": {
      "gocryptoId": 3816
    },
    "zip_code": "1101"
  },
  {
    "id": "f210ce16-f278-47b3-91b2-a6374ac51d71",
    "title": "Sorbeteria San Julian",
    "address": "Kilometro 48 1/2 Carretera a Sonsonate, Desvio a San Julian",
    "country": "SV",
    "city": "Izalco, Sonsonate",
    "lat": "13.686788",
    "lng": "-89.218290",
    "accepted_cryptos": [
      "BTC",
      "UST"
    ],
    "tags": [
      "food_and_drink"
    ],
    "phone": null,
    "logo_url": "https://s3.eu-central-1.amazonaws.com/public.elipay.com/live-3514d179aac2/source/images/c16169de0f384a06933a13617e0d515c.png",
    "website": "",
    "description": null,
    "extra_data": {
      "gocryptoId": 3052
    },
    "zip_code": "2306"
  },
  {
    "id": "d8d64315-6096-463a-b7d7-241221301eeb",
    "title": "Sport Feet Bernal",
    "address": "Avenida Bernal y Calle Constitución 8",
    "country": "SV",
    "city": "San Salvador",
    "lat": "13.723043",
    "lng": "-89.216827",
    "accepted_cryptos": [
      "BTC",
      "UST"
    ],
    "tags": [
      "fashion",
      "retail"
    ],
    "phone": null,
    "logo_url": "https://s3.eu-central-1.amazonaws.com/public.elipay.com/live-3514d179aac2/source/images/02568d8ab9fc4dea96e2b18d48b5249f.jpg",
    "website": "",
    "description": null,
    "extra_data": {
      "gocryptoId": 3467
    },
    "zip_code": "1101"
  },
  {
    "id": "bb64f96c-d6c7-45f1-9080-813915716442",
    "title": "Sprezzatura coffee stand",
    "address": "Plaza árbol de Dios Final calle La Mascota Avenida Jerusalén Lote 1 Pg H primer nivel",
    "country": "SV",
    "city": "San Salvador",
    "lat": "13.697313",
    "lng": "-89.249687",
    "accepted_cryptos": [
      "BTC",
      "UST"
    ],
    "tags": [
      "food_and_drink",
      "retail"
    ],
    "phone": null,
    "logo_url": "https://s3.eu-central-1.amazonaws.com/public.elipay.com/live-3514d179aac2/source/images/4667aa567c6f4cd5a89afe76c89bfce2.png",
    "website": "",
    "description": null,
    "extra_data": {
      "gocryptoId": 3357
    },
    "zip_code": "1101"
  },
  {
    "id": "a905f255-cf1a-4ff9-957d-5ad9da5f1e49",
    "title": "Susy's Bakery",
    "address": "3ra Calle Poniente 5-12 Santa Tecla, La Libertad",
    "country": "SV",
    "city": "Santa Tecla",
    "lat": "13.676813",
    "lng": "-89.293188",
    "accepted_cryptos": [
      "BTC",
      "UST"
    ],
    "tags": [
      "food_and_drink"
    ],
    "phone": null,
    "logo_url": "https://s3.eu-central-1.amazonaws.com/public.elipay.com/live-3514d179aac2/source/images/516467e2b98c42fc8b2bdd8bd642ea2c.jpg",
    "website": "",
    "description": null,
    "extra_data": {
      "gocryptoId": 3689
    },
    "zip_code": "1101"
  },
  {
    "id": "ff31adb9-a4a7-463b-a0ed-8fc5f2884d66",
    "title": "Taller Automotriz JM",
    "address": "Colonia 3 de Mayo, 43 Avenida sur y Boulevard Venezuela # 920",
    "country": "SV",
    "city": "San Salvador",
    "lat": "13.692438",
    "lng": "-89.214172",
    "accepted_cryptos": [
      "BTC",
      "UST"
    ],
    "tags": [
      "services",
      "auto_and_moto"
    ],
    "phone": null,
    "logo_url": "",
    "website": "",
    "description": null,
    "extra_data": {
      "gocryptoId": 3683
    },
    "zip_code": "1101"
  },
  {
    "id": "698b29f2-fc5e-4659-8bb8-6dcdf23b9e6a",
    "title": "Taller Azul",
    "address": "Residencial Altos de San Luis, Senda Jessica Poligono B casa #21",
    "country": "SV",
    "city": "San Salvador",
    "lat": "13.720256",
    "lng": "-89.215592",
    "accepted_cryptos": [
      "BTC",
      "UST"
    ],
    "tags": [
      "auto_and_moto",
      "retail"
    ],
    "phone": null,
    "logo_url": "",
    "website": "",
    "description": null,
    "extra_data": {
      "gocryptoId": 3477
    },
    "zip_code": "1101"
  },
  {
    "id": "bc63e592-3fc5-4732-844e-4f6d256ba400",
    "title": "Taller Los Reyes",
    "address": "Colonia Santa Leonor, casa #52 Avenida Europa San Marcos",
    "country": "SV",
    "city": "San Salvador",
    "lat": "13.650688",
    "lng": "-89.182187",
    "accepted_cryptos": [
      "BTC",
      "UST"
    ],
    "tags": [
      "auto_and_moto"
    ],
    "phone": null,
    "logo_url": "",
    "website": "",
    "description": null,
    "extra_data": {
      "gocryptoId": 3629
    },
    "zip_code": "1101"
  },
  {
    "id": "a9902739-1c19-4dcf-86df-a12b267dfdbd",
    "title": "TechStore Plaza Merliot",
    "address": "Centro Comercial Plaza Merliot, 3 nivel, Kiosko frente a Telus",
    "country": "SV",
    "city": "San Salvador",
    "lat": "13.678723",
    "lng": "-89.276066",
    "accepted_cryptos": [
      "BTC",
      "UST"
    ],
    "tags": [
      "electronics"
    ],
    "phone": null,
    "logo_url": "https://s3.eu-central-1.amazonaws.com/public.elipay.com/live-3514d179aac2/source/images/a01e698c69f84268a3674b8a1f9f10b6.jpg",
    "website": "https://www.instagram.com/techstoresv_/?hl=en",
    "description": null,
    "extra_data": {
      "gocryptoId": 3464
    },
    "zip_code": "1101"
  },
  {
    "id": "8815dbe5-e0ca-4880-b1cf-305ecf0cb3c1",
    "title": "Tekapa Hotel",
    "address": "Barrio El Calvario Primera Avenida norte, Pasaje Mejia",
    "country": "SV",
    "city": "Alegria",
    "lat": "13.508812",
    "lng": "-88.487187",
    "accepted_cryptos": [
      "BTC",
      "UST"
    ],
    "tags": [
      "services",
      "retail"
    ],
    "phone": null,
    "logo_url": "https://s3.eu-central-1.amazonaws.com/public.elipay.com/live-3514d179aac2/source/images/4afd25e187a04baf8b35fdcf46aa74a4.jpg",
    "website": "",
    "description": null,
    "extra_data": {
      "gocryptoId": 3343
    },
    "zip_code": "1101"
  },
  {
    "id": "69e55914-ed6d-4be1-9751-d04eb51ec504",
    "title": "Tekemal Rent a Car",
    "address": "Colonia Manuel Jose Arce, Calle Douglas Varela, Centro Comercial COOPEFA, Local A-13",
    "country": "SV",
    "city": "San Salvador",
    "lat": "13.685557",
    "lng": "-89.231191",
    "accepted_cryptos": [
      "BTC",
      "UST",
      "NAKA_CARD"
    ],
    "tags": [
      "auto_and_moto",
      "retail",
      "NAKA"
    ],
    "phone": null,
    "logo_url": "https://s3.eu-central-1.amazonaws.com/public.elipay.com/live-3514d179aac2/source/images/c89a00a7360744f18e523ec719ece496.jpg",
    "website": "https://instagram.com/tekemal_sv/",
    "description": null,
    "extra_data": {
      "gocryptoId": 3171
    },
    "zip_code": "1101"
  },
  {
    "id": "c703e2c2-0b3c-44e0-94b5-a397a09da2d4",
    "title": "TenGo Azaleas",
    "address": "Calle la Mascota y Av. Las Azaleas #915, colonia Maquilishuat",
    "country": "SV",
    "city": "San Salvador",
    "lat": "13.697006",
    "lng": "-89.244988",
    "accepted_cryptos": [
      "BTC",
      "UST"
    ],
    "tags": [
      "food_and_drink"
    ],
    "phone": null,
    "logo_url": "https://s3.eu-central-1.amazonaws.com/public.elipay.com/live-3514d179aac2/source/images/bb7df59e27de464f8b52a539125cd5a9.jpg",
    "website": "",
    "description": null,
    "extra_data": {
      "gocryptoId": 3141
    },
    "zip_code": "1101"
  },
  {
    "id": "4095dfaf-69f8-41cb-9f56-dfee50894465",
    "title": "Tienda Dinora",
    "address": "Barrio San Juan de Dios san vicente 5ta avenida sur 2212",
    "country": "SV",
    "city": "San Vicente",
    "lat": "13.642669",
    "lng": "-88.787752",
    "accepted_cryptos": [
      "BTC",
      "UST"
    ],
    "tags": [
      "food_and_drink",
      "retail"
    ],
    "phone": null,
    "logo_url": "https://s3.eu-central-1.amazonaws.com/public.elipay.com/live-3514d179aac2/source/images/88066f80be9246228af72aa1ef9fb335.png",
    "website": "",
    "description": null,
    "extra_data": {
      "gocryptoId": 3725
    },
    "zip_code": "1101"
  },
  {
    "id": "c09c6f0e-bf6f-484a-9d7d-85503c0fbef1",
    "title": "Tienda El Milagro",
    "address": "1a Calle Oriente, Casa #4, Barrio El Centro",
    "country": "SV",
    "city": "Alegría",
    "lat": "13.507222",
    "lng": "-88.488206",
    "accepted_cryptos": [
      "BTC",
      "UST"
    ],
    "tags": [
      "food_and_drink",
      "retail"
    ],
    "phone": null,
    "logo_url": "",
    "website": "",
    "description": null,
    "extra_data": {
      "gocryptoId": 3356
    },
    "zip_code": "1101"
  },
  {
    "id": "08579355-f7bf-4a05-ad1b-2f93009fa1e9",
    "title": "Tienda Janeth",
    "address": "Barrio la Merced Novena Avenida norte casa #4, Alegría Usulutan",
    "country": "SV",
    "city": "Alegria",
    "lat": "13.336213",
    "lng": "-88.444016",
    "accepted_cryptos": [
      "BTC",
      "UST"
    ],
    "tags": [
      "food_and_drink"
    ],
    "phone": null,
    "logo_url": "",
    "website": "",
    "description": null,
    "extra_data": {
      "gocryptoId": 3362
    },
    "zip_code": "1101"
  },
  {
    "id": "e023072a-dcaa-4a1e-bd6f-3de42d649c7b",
    "title": "Tienda San Judas",
    "address": "Boulevard Saab calle Paracutin Pje D-1 A",
    "country": "SV",
    "city": "Mejicanos",
    "lat": "13.727813",
    "lng": "-89.220078",
    "accepted_cryptos": [
      "BTC",
      "UST"
    ],
    "tags": [
      "food_and_drink"
    ],
    "phone": null,
    "logo_url": "",
    "website": "",
    "description": null,
    "extra_data": {
      "gocryptoId": 3396
    },
    "zip_code": "1101"
  },
  {
    "id": "645e7ebd-59b5-431c-b0d2-473da31df07b",
    "title": "Tipicos D' La Villa",
    "address": "Calle El Mirador Entre 87 y 89 Avenida Norte, Colonia Escalón, Torre Futura",
    "country": "SV",
    "city": "San Salvador",
    "lat": "13.708702",
    "lng": "-89.241050",
    "accepted_cryptos": [
      "BTC",
      "UST"
    ],
    "tags": [
      "food_and_drink",
      "retail"
    ],
    "phone": null,
    "logo_url": "https://s3.eu-central-1.amazonaws.com/public.elipay.com/live-3514d179aac2/source/images/d6f36a72f7c346a1bcffd5367d6a2be3.jpg",
    "website": "",
    "description": null,
    "extra_data": {
      "gocryptoId": 3288
    },
    "zip_code": "1101"
  },
  {
    "id": "4d289588-30da-4919-92b8-7b8d0f6f3fb4",
    "title": "Torres Legal",
    "address": "Calle Cuscatlan 4312 Colonia Escalon",
    "country": "SV",
    "city": "San Salvador",
    "lat": "13.700688",
    "lng": "-89.239188",
    "accepted_cryptos": [
      "BTC",
      "UST"
    ],
    "tags": [
      "services"
    ],
    "phone": null,
    "logo_url": "https://s3.eu-central-1.amazonaws.com/public.elipay.com/live-3514d179aac2/source/images/cc9adc4bf8c94e1f989ab436cb5c6525.png",
    "website": "https://torres.legal",
    "description": null,
    "extra_data": {
      "gocryptoId": 3335
    },
    "zip_code": "1101"
  },
  {
    "id": "e6bbd863-5440-40bc-a5e0-148cd51c6018",
    "title": "Acopacific Servicio de Taxis",
    "address": "Calle Principal 152",
    "country": "SV",
    "city": "San Luis Talpa",
    "lat": "13.445562",
    "lng": "-89.055687",
    "accepted_cryptos": [
      "BTC",
      "UST"
    ],
    "tags": [
      "services",
      "retail"
    ],
    "phone": null,
    "logo_url": "https://s3.eu-central-1.amazonaws.com/public.elipay.com/live-3514d179aac2/source/images/91173621d2d94f1b9d657a25d6dd6e67.png",
    "website": "",
    "description": null,
    "extra_data": {
      "gocryptoId": 3498
    },
    "zip_code": "1101"
  },
  {
    "id": "3c36dbdc-43a6-46f7-a1f8-abf476c2953c",
    "title": "Tres Piedras Hotel",
    "address": "Carretera Panoramica KM 21.5",
    "country": "SV",
    "city": "San Francisco Chinameca",
    "lat": "13.623569",
    "lng": "-89.072543",
    "accepted_cryptos": [
      "BTC",
      "UST"
    ],
    "tags": [
      "services",
      "retail"
    ],
    "phone": null,
    "logo_url": "https://s3.eu-central-1.amazonaws.com/public.elipay.com/live-3514d179aac2/source/images/cc1b9e46f3324a08ac0e2e9b71cde998.png",
    "website": "",
    "description": null,
    "extra_data": {
      "gocryptoId": 3492
    },
    "zip_code": "1101"
  },
  {
    "id": "e392ad06-a9d7-4d93-83f7-52f716c045f5",
    "title": "Unapenda Chakula",
    "address": "Colonia Jardines de Guadalupe, Calle del Cantabrico #10 Pol B Local A",
    "country": "SV",
    "city": "Antiguo Cuscatlan",
    "lat": "13.678469",
    "lng": "-89.237145",
    "accepted_cryptos": [
      "BTC",
      "UST"
    ],
    "tags": [
      "food_and_drink"
    ],
    "phone": null,
    "logo_url": "https://s3.eu-central-1.amazonaws.com/public.elipay.com/live-3514d179aac2/source/images/fe702f2b820b48d88826eaa057b1b41e.jpg",
    "website": "",
    "description": null,
    "extra_data": {
      "gocryptoId": 3738
    },
    "zip_code": "1101"
  },
  {
    "id": "5f861c2e-25f6-4c99-bc5e-3eb8862a06a2",
    "title": "Unidad Médica De Especialidades Chalchuapa",
    "address": "1a Calle Ote y 9a Ave Sur",
    "country": "SV",
    "city": "Chalchuapa",
    "lat": "13.982796",
    "lng": "-89.674943",
    "accepted_cryptos": [
      "BTC",
      "UST"
    ],
    "tags": [
      "services",
      "retail"
    ],
    "phone": null,
    "logo_url": "",
    "website": "",
    "description": null,
    "extra_data": {
      "gocryptoId": 3264
    },
    "zip_code": "2205"
  },
  {
    "id": "9f6d1b6b-cf66-45c4-82f8-bca0ede172dd",
    "title": "VeCoffee",
    "address": "Local 11 Paseo General Escalon, Plaza Masferrer",
    "country": "SV",
    "city": "San Salvador",
    "lat": "13.703045",
    "lng": "-89.248409",
    "accepted_cryptos": [
      "BTC",
      "UST"
    ],
    "tags": [
      "food_and_drink"
    ],
    "phone": null,
    "logo_url": "https://s3.eu-central-1.amazonaws.com/public.elipay.com/live-3514d179aac2/source/images/ce700222cec74645b4c12e99c48f2f92.jpg",
    "website": "",
    "description": null,
    "extra_data": {
      "gocryptoId": 3135
    },
    "zip_code": "1101"
  },
  {
    "id": "39d609a9-1f73-4e7b-8bc2-b07204aa3cd5",
    "title": "Vegas Salón Tuscania",
    "address": "L1-03 Piazza Centrale, Via Del Corso Tuscania Km 16, Ca-4",
    "country": "SV",
    "city": "Zaragoza",
    "lat": "13.618562",
    "lng": "-89.286812",
    "accepted_cryptos": [
      "BTC",
      "UST",
      "NAKA_CARD"
    ],
    "tags": [
      "fashion",
      "NAKA"
    ],
    "phone": null,
    "logo_url": "https://s3.eu-central-1.amazonaws.com/public.elipay.com/live-3514d179aac2/source/images/3a0dbc6cd71a4af3a040a2968eaf3da8.jpg",
    "website": "",
    "description": null,
    "extra_data": {
      "gocryptoId": 3167
    },
    "zip_code": "05022"
  },
  {
    "id": "316ba4da-da35-49f7-b4c2-56c550664ebe",
    "title": "Vennua Suites",
    "address": "Calle Las Orquideas & 35 Avenida Norte, casa #12",
    "country": "SV",
    "city": "San Salvador",
    "lat": "13.717727",
    "lng": "-89.207960",
    "accepted_cryptos": [
      "BTC",
      "UST"
    ],
    "tags": [
      "services",
      "travel",
      "entertainment"
    ],
    "phone": null,
    "logo_url": "",
    "website": "https://vennua-suits-atico.sansalvador-city-hotels.com/en/",
    "description": null,
    "extra_data": {
      "gocryptoId": 3250
    },
    "zip_code": "1102"
  },
  {
    "id": "1f58c662-f956-4660-84d3-7686ef5b08f3",
    "title": "Willy's Wings Millennium Plaza",
    "address": "Paseo General Escalón 3675, Edificio Millennium Plaza, 3 Nivel Food Court",
    "country": "SV",
    "city": "San Salvador",
    "lat": "13.701425",
    "lng": "-89.228833",
    "accepted_cryptos": [
      "BTC",
      "UST"
    ],
    "tags": [
      "food_and_drink",
      "disable_eurt"
    ],
    "phone": null,
    "logo_url": "https://s3.eu-central-1.amazonaws.com/public.elipay.com/live-3514d179aac2/source/images/781a449b69d9434e9a2ce16d13a760fe.jpg",
    "website": "",
    "description": null,
    "extra_data": {
      "gocryptoId": 3459
    },
    "zip_code": "1101"
  },
  {
    "id": "583155c4-fa16-494e-be21-9400b7f8f030",
    "title": "WorldGym Escalon",
    "address": "5ta Calle Poniente y, 85 Avenida Nte. block 73",
    "country": "SV",
    "city": "San Salvador",
    "lat": "13.705416",
    "lng": "-89.237970",
    "accepted_cryptos": [
      "BTC",
      "UST"
    ],
    "tags": [
      "sports_and_leisure"
    ],
    "phone": null,
    "logo_url": "https://s3.eu-central-1.amazonaws.com/public.elipay.com/live-3514d179aac2/source/images/d26ea40fde4948a6907c4af4838cf40c.png",
    "website": "https://worldgym.com.sv/",
    "description": null,
    "extra_data": {
      "gocryptoId": 3148
    },
    "zip_code": "1101"
  },
  {
    "id": "4b100870-d422-41f0-af95-0ee67739ff68",
    "title": "Yessi Boutique and Couture",
    "address": "Ave Albert Einstein Pol N, Colonia Jardines de Guadalupe, #5-A",
    "country": "SV",
    "city": "Antiguo Cuscatlan",
    "lat": "13.677703",
    "lng": "-89.235503",
    "accepted_cryptos": [
      "BTC",
      "UST",
      "NAKA_CARD"
    ],
    "tags": [
      "fashion",
      "NAKA"
    ],
    "phone": null,
    "logo_url": "https://s3.eu-central-1.amazonaws.com/public.elipay.com/live-3514d179aac2/source/images/d5707d2b941f44909189b1420aa39074.jpg",
    "website": "",
    "description": null,
    "extra_data": {
      "gocryptoId": 3311
    },
    "zip_code": "1101"
  }
]
